{ "type": "Feature", "properties": { "NOMBRE": "TEATRO ALFREDO MORENO", "DIRECCION": null }, "geometry": { "type": "Point", "coordinates": [ -56.101180420361722, -34.894579894828148 ] } },
{ "type": "Feature", "properties": { "NOMBRE": "TEATRO ALIANZA URUGUAY-EEUU", "DIRECCION": "PARAGUAY 1217" }, "geometry": { "type": "Point", "coordinates": [ -56.192315860648797, -34.90847742882066 ] } },
{ "type": "Feature", "properties": { "NOMBRE": "TEATRO ANGLO", "DIRECCION": "SAN JOSE 1426" }, "geometry": { "type": "Point", "coordinates": [ -56.184905417875044, -34.906470156413071 ] } },
{ "type": "Feature", "properties": { "NOMBRE": "TEATRO ASOCIACION CRISTANA DE JOVENES", "DIRECCION": "COLONIA 1870" }, "geometry": { "type": "Point", "coordinates": [ -56.176332450816382, -34.900956680426823 ] } },
{ "type": "Feature", "properties": { "NOMBRE": "TEATRO EL GALPON", "DIRECCION": "AV 18 DE JULIO 1618" }, "geometry": { "type": "Point", "coordinates": [ -56.181181452478846, -34.904067597523927 ] } },
{ "type": "Feature", "properties": { "NOMBRE": "TEATRO EL SOTANO", "DIRECCION": "DR EDUARDO J COUTURE 6401" }, "geometry": { "type": "Point", "coordinates": [ -56.060496917311973, -34.884682434118652 ] } },
{ "type": "Feature", "properties": { "NOMBRE": "TEATRO FUNDACION UNIVINT", "DIRECCION": "AV 18 DE JULIO 948" }, "geometry": { "type": "Point", "coordinates": [ -56.196068527995237, -34.906361085984102 ] } },
{ "type": "Feature", "properties": { "NOMBRE": "TEATRO MOVIECENTER", "DIRECCION": "AV LUIS ALBERTO DE HERRERA 1290" }, "geometry": { "type": "Point", "coordinates": [ -56.137254940692451, -34.904096969124105 ] } },
{ "type": "Feature", "properties": { "NOMBRE": "TEATRO SOLIS", "DIRECCION": "BUENOS AIRES 678" }, "geometry": { "type": "Point", "coordinates": [ -56.201216156332286, -34.907406254921362 ] } },
{ "type": "Feature", "properties": { "NOMBRE": "TEATRO UNDER MOVIE", "DIRECCION": "AV LUIS ALBERTO DE HERRERA 1290" }, "geometry": { "type": "Point", "coordinates": [ -56.137254940692451, -34.904096969124105 ] } },
{ "type": "Feature", "properties": { "NOMBRE": "TEATRO AGADU", "DIRECCION": "CANELONES 1122" }, "geometry": { "type": "Point", "coordinates": [ -56.191615009820872, -34.908839909029737 ] } },
{ "type": "Feature", "properties": { "NOMBRE": "TEATRO STELLA", "DIRECCION": "MERCEDES 1805" }, "geometry": { "type": "Point", "coordinates": [ -56.178148524389364, -34.900588042984019 ] } },
{ "type": "Feature", "properties": { "NOMBRE": "TEATRO LA CANDELA", "DIRECCION": "JOSE ELLAURI 308" }, "geometry": { "type": "Point", "coordinates": [ -56.160145989609319, -34.924063867476853 ] } },
{ "type": "Feature", "properties": { "NOMBRE": "CINE DODECA", "DIRECCION": "SAN NICOLAS 1306" }, "geometry": { "type": "Point", "coordinates": [ -56.065986277897338, -34.897790475376731 ] } },
{ "type": "Feature", "properties": { "NOMBRE": "MUSEO MUNICIPAL SUBTE", "DIRECCION": null }, "geometry": { "type": "Point", "coordinates": [ -56.194456324284978, -34.906000482234901 ] } },
{ "type": "Feature", "properties": { "NOMBRE": "CINE CASABLANCA", "DIRECCION": "21 DE SETIEMBRE 2838" }, "geometry": { "type": "Point", "coordinates": [ -56.156327710110162, -34.918793455856019 ] } },
{ "type": "Feature", "properties": { "NOMBRE": "TEATRO ASTRAL", "DIRECCION": "DURAZNO 1476" }, "geometry": { "type": "Point", "coordinates": [ -56.183387705840715, -34.910113709927096 ] } },
{ "type": "Feature", "properties": { "NOMBRE": "CINE MATURANA", "DIRECCION": null }, "geometry": { "type": "Point", "coordinates": [ -56.201806516753919, -34.87261282554045 ] } },
{ "type": "Feature", "properties": { "NOMBRE": "CINE PLAZA", "DIRECCION": "PLAZA CAGANCHA 1129" }, "geometry": { "type": "Point", "coordinates": [ -56.191980765722477, -34.905366870630651 ] } },
{ "type": "Feature", "properties": { "NOMBRE": "CINE METRO", "DIRECCION": null }, "geometry": { "type": "Point", "coordinates": [ -56.19001664834191, -34.90667432104577 ] } },
{ "type": "Feature", "properties": { "NOMBRE": "CINE MOVIECENTER MONTEVIDEO SHOPPING", "DIRECCION": "AV LUIS ALBERTO DE HERRERA 1290" }, "geometry": { "type": "Point", "coordinates": [ -56.137254940692451, -34.904096969124105 ] } },
{ "type": "Feature", "properties": { "NOMBRE": "MUSEO MUNICIPAL JUAN MANUEL BLANES", "DIRECCION": "AV MILLAN 4015" }, "geometry": { "type": "Point", "coordinates": [ -56.197509787344728, -34.852183888627195 ] } },
{ "type": "Feature", "properties": { "NOMBRE": "MUSEO MUNICIPAL CABILDO", "DIRECCION": "JUAN CARLOS GOMEZ 1362" }, "geometry": { "type": "Point", "coordinates": [ -56.202916712760313, -34.906596340979142 ] } },
{ "type": "Feature", "properties": { "NOMBRE": "MUSEO MUNICIPAL DE LA MEMORIA", "DIRECCION": null }, "geometry": { "type": "Point", "coordinates": [ -56.198676462063503, -34.842239852570323 ] } },
{ "type": "Feature", "properties": { "NOMBRE": "TEATRO CIRCULAR", "DIRECCION": null }, "geometry": { "type": "Point", "coordinates": [ -56.191376874626513, -34.905258650535707 ] } },
{ "type": "Feature", "properties": { "NOMBRE": "TEATRO EL TINGLADO", "DIRECCION": "COLONIA 2035" }, "geometry": { "type": "Point", "coordinates": [ -56.172170414632532, -34.899130273552593 ] } },
{ "type": "Feature", "properties": { "NOMBRE": "TEATRO CASA DE LOS SIETE VIENTOS", "DIRECCION": "AV GONZALO RAMIREZ 1595" }, "geometry": { "type": "Point", "coordinates": [ -56.180494897617749, -34.912281118266932 ] } },
{ "type": "Feature", "properties": { "NOMBRE": "TEATRO LA GAVIOTA", "DIRECCION": "MERCEDES 1805" }, "geometry": { "type": "Point", "coordinates": [ -56.178148524389364, -34.900588042984019 ] } },
{ "type": "Feature", "properties": { "NOMBRE": "TEATRO NOTARIADO", "DIRECCION": "GUAYABO 1729" }, "geometry": { "type": "Point", "coordinates": [ -56.178488944705833, -34.903821649043884 ] } },
{ "type": "Feature", "properties": { "NOMBRE": "TEATRO SALA VERDI", "DIRECCION": "SORIANO 914" }, "geometry": { "type": "Point", "coordinates": [ -56.196401443676258, -34.908256869164731 ] } },
{ "type": "Feature", "properties": { "NOMBRE": "TEATRO VICTORIA", "DIRECCION": "RIO NEGRO 1479" }, "geometry": { "type": "Point", "coordinates": [ -56.193967944434547, -34.903625797086939 ] } },
{ "type": "Feature", "properties": { "NOMBRE": "TEATRO LA MENNAIS", "DIRECCION": null }, "geometry": { "type": "Point", "coordinates": [ -56.089173046333627, -34.887781709064917 ] } },
{ "type": "Feature", "properties": { "NOMBRE": "TEATRO ARTEATRO", "DIRECCION": "CANELONES 1140" }, "geometry": { "type": "Point", "coordinates": [ -56.19134509065605, -34.908819709726032 ] } },
{ "type": "Feature", "properties": { "NOMBRE": "TEATRO ATENEO", "DIRECCION": "PLAZA CAGANCHA 1157" }, "geometry": { "type": "Point", "coordinates": [ -56.191140001047913, -34.905298541636455 ] } },
{ "type": "Feature", "properties": { "NOMBRE": "TEATRO LA COLMENA", "DIRECCION": "MALDONADO 2182" }, "geometry": { "type": "Point", "coordinates": [ -56.167753888520807, -34.908078446314633 ] } },
{ "type": "Feature", "properties": { "NOMBRE": "TEATRO ESCUELA DE COMEDIA MUSICAL", "DIRECCION": "CANELONES 2150" }, "geometry": { "type": "Point", "coordinates": [ -56.168825517590619, -34.907188183684312 ] } },
{ "type": "Feature", "properties": { "NOMBRE": "TEATRO ESPACIO PALERMO", "DIRECCION": "ISLA DE FLORES 1627" }, "geometry": { "type": "Point", "coordinates": [ -56.179746887272536, -34.910571308148079 ] } },
{ "type": "Feature", "properties": { "NOMBRE": "TEATRO ESPACIO TEATRO", "DIRECCION": "MERCEDES 869" }, "geometry": { "type": "Point", "coordinates": [ -56.197921327306354, -34.904393867054821 ] } },
{ "type": "Feature", "properties": { "NOMBRE": "TEATRO FLORENCIO SANCHEZ", "DIRECCION": "GRECIA 3281" }, "geometry": { "type": "Point", "coordinates": [ -56.247759030833137, -34.892211879029006 ] } },
{ "type": "Feature", "properties": { "NOMBRE": "TEATRO DEL CENTRO", "DIRECCION": null }, "geometry": { "type": "Point", "coordinates": [ -56.190949201198038, -34.906455101022033 ] } },
{ "type": "Feature", "properties": { "NOMBRE": "TEATRO ALIANZA FRANCESA", "DIRECCION": "BV GRAL ARTIGAS 1229" }, "geometry": { "type": "Point", "coordinates": [ -56.164060292065805, -34.90512787363425 ] } },
{ "type": "Feature", "properties": { "NOMBRE": "TEATRO VIEJA FARMACIA SOLIS", "DIRECCION": "AV AGRACIADA 2623" }, "geometry": { "type": "Point", "coordinates": [ -56.194202556407127, -34.883623650250421 ] } },
{ "type": "Feature", "properties": { "NOMBRE": "ESPACIO CULTURA CASTILLO PITAMIGLIO", "DIRECCION": "RBLA MAHATMA GANDHI 633" }, "geometry": { "type": "Point", "coordinates": [ -56.149805781681174, -34.921021050546543 ] } },
{ "type": "Feature", "properties": { "NOMBRE": "ESPACIO CULTURA BIGUA", "DIRECCION": "JOSE VAZQUEZ LEDESMA 2968" }, "geometry": { "type": "Point", "coordinates": [ -56.152845625124243, -34.920970386256293 ] } },
{ "type": "Feature", "properties": { "NOMBRE": "CINEMATECA 18", "DIRECCION": "AV 18 DE JULIO 1286" }, "geometry": { "type": "Point", "coordinates": [ -56.188427780664149, -34.905796494759414 ] } },
{ "type": "Feature", "properties": { "NOMBRE": "CINEMATECA 1 Y 2", "DIRECCION": null }, "geometry": { "type": "Point", "coordinates": [ -56.188372442315234, -34.90579769411724 ] } },
{ "type": "Feature", "properties": { "NOMBRE": "CINEMATECA POCITOS", "DIRECCION": "ALEJANDRO CHUCARRO 1036" }, "geometry": { "type": "Point", "coordinates": [ -56.149351956427665, -34.912795038349195 ] } },
{ "type": "Feature", "properties": { "NOMBRE": "GRUPOCINE AROCENA", "DIRECCION": "AV ALFREDO AROCENA 1680" }, "geometry": { "type": "Point", "coordinates": [ -56.05814000986404, -34.886844058870096 ] } },
{ "type": "Feature", "properties": { "NOMBRE": "GRUPOCINE EJIDO", "DIRECCION": "EJIDO 1377" }, "geometry": { "type": "Point", "coordinates": [ -56.187023405008375, -34.905036070327633 ] } },
{ "type": "Feature", "properties": { "NOMBRE": "GRUPOCINE PUNTA CARRETAS", "DIRECCION": "JOSE ELLAURI 350" }, "geometry": { "type": "Point", "coordinates": [ -56.158307193151792, -34.923341675625856 ] } },
{ "type": "Feature", "properties": { "NOMBRE": "GRUPOCINE TORRE DE LOS PROFESIONALES", "DIRECCION": "COLONIA 1297" }, "geometry": { "type": "Point", "coordinates": [ -56.188459112759865, -34.904638852717092 ] } },
{ "type": "Feature", "properties": { "NOMBRE": "CINE MOVIECENTER PORTONES SHOPPING", "DIRECCION": "AV ITALIA 5775" }, "geometry": { "type": "Point", "coordinates": [ -56.082756126979831, -34.882443460170002 ] } },
{ "type": "Feature", "properties": { "NOMBRE": "CINE MOVIECENTER PUNTA CARRETAS SHOPPING", "DIRECCION": "JOSE ELLAURI 350" }, "geometry": { "type": "Point", "coordinates": [ -56.158307193151792, -34.923341675625856 ] } },
{ "type": "Feature", "properties": { "NOMBRE": "CINE UNIVERSITARIO 1 Y 2", "DIRECCION": "CANELONES 1280" }, "geometry": { "type": "Point", "coordinates": [ -56.188192337286864, -34.908572223346617 ] } },
{ "type": "Feature", "properties": { "NOMBRE": "TEATRO DE VERANO", "DIRECCION": null }, "geometry": { "type": "Point", "coordinates": [ -56.169632958934727, -34.918872346153577 ] } },
{ "type": "Feature", "properties": { "NOMBRE": "ESPACIO CULTURAL GUAMBIA", "DIRECCION": "25 DE MAYO 591" }, "geometry": { "type": "Point", "coordinates": [ -56.20384945275854, -34.905211231668517 ] } },
{ "type": "Feature", "properties": { "NOMBRE": "ESPACIO CULTURAL INSTITUTO GOEHTE", "DIRECCION": "CANELONES 1524" }, "geometry": { "type": "Point", "coordinates": [ -56.18255957196962, -34.908170834350386 ] } },
{ "type": "Feature", "properties": { "NOMBRE": "ESPACIO CULTURAL SALA ZITARROSA", "DIRECCION": "AV 18 DE JULIO 1012" }, "geometry": { "type": "Point", "coordinates": [ -56.194498844932525, -34.906248264646521 ] } },
{ "type": "Feature", "properties": { "NOMBRE": "MUSEO MUNICIPAL DEL AZULEJO", "DIRECCION": "YI 1444" }, "geometry": { "type": "Point", "coordinates": [ -56.189208326982673, -34.904064655456487 ] } },
{ "type": "Feature", "properties": { "NOMBRE": "MUSEO MUNICIPAL FERNANDO GARCIA", "DIRECCION": null }, "geometry": { "type": "Point", "coordinates": [ -56.071634111531814, -34.869984314781057 ] } },
{ "type": "Feature", "properties": { "NOMBRE": "MUSEO MUNICIPAL DE HISTORIA DEL ARTE", "DIRECCION": "EJIDO 1326" }, "geometry": { "type": "Point", "coordinates": [ -56.186664447056209, -34.906567118714996 ] } },
{ "type": "Feature", "properties": { "NOMBRE": "MUSEO MUNICIPAL PRECOLOMBINO E INDIGENA", "DIRECCION": null }, "geometry": { "type": "Point", "coordinates": [ -56.209987634050279, -34.907229594252698 ] } },
{ "type": "Feature", "properties": { "NOMBRE": "BIBLIOTECA MUNICIPAL AMADO NERVO", "DIRECCION": "AV ING SANTIAGO RIVAS 1500" }, "geometry": { "type": "Point", "coordinates": [ -56.132258753653346, -34.897709728169609 ] } },
{ "type": "Feature", "properties": { "NOMBRE": "BIBLIOTECA MUNICIPAL AURELIA VIERA", "DIRECCION": "LUCAS OBES 1021" }, "geometry": { "type": "Point", "coordinates": [ -56.203001266525206, -34.863720241661191 ] } },
{ "type": "Feature", "properties": { "NOMBRE": "BIBLIOTECA MUNICIPAL CARLOS REYLES", "DIRECCION": "CURITIBA 5424" }, "geometry": { "type": "Point", "coordinates": [ -56.176033937871551, -34.824305989031743 ] } },
{ "type": "Feature", "properties": { "NOMBRE": "BIBLIOTECA MUNICIPAL CARLOS ROXLO", "DIRECCION": "AV DR CARLOS MARIA RAMIREZ 867" }, "geometry": { "type": "Point", "coordinates": [ -56.23592663658097, -34.866125647657803 ] } },
{ "type": "Feature", "properties": { "NOMBRE": "BIBLIOTECA MUNICIPAL CARLOS VILLADEMOROS", "DIRECCION": null }, "geometry": { "type": "Point", "coordinates": [ -56.167107852185829, -34.860926847999927 ] } },
{ "type": "Feature", "properties": { "NOMBRE": "BIBLIOTECA MUNICIPAL DELMIRA AGUSTINI", "DIRECCION": null }, "geometry": { "type": "Point", "coordinates": [ -56.123689291749599, -34.888771143010985 ] } },
{ "type": "Feature", "properties": { "NOMBRE": "BIBLIOTECA MUNICIPAL FRANCISCO SCHINCA", "DIRECCION": "AV 8 DE OCTUBRE 4210" }, "geometry": { "type": "Point", "coordinates": [ -56.13423818184453, -34.867335355216134 ] } },
{ "type": "Feature", "properties": { "NOMBRE": "BIBLIOTECA MUNICIPAL EVARISTO CIGANDA", "DIRECCION": "AV LUIS BATLLE BERRES 314" }, "geometry": { "type": "Point", "coordinates": [ -56.351984991989269, -34.791054649910429 ] } },
{ "type": "Feature", "properties": { "NOMBRE": "BIBLIOTECA MUNICIPAL HORACIO QUIROGA", "DIRECCION": "AV GRAL FLORES 2455" }, "geometry": { "type": "Point", "coordinates": [ -56.18254029560633, -34.882000103634617 ] } },
{ "type": "Feature", "properties": { "NOMBRE": "BIBLIOTECA MUNICIPAL ING JUAN MONTEVERDE", "DIRECCION": null }, "geometry": { "type": "Point", "coordinates": [ -56.221649074100668, -34.805612241918695 ] } },
{ "type": "Feature", "properties": { "NOMBRE": "BIBLIOTECA MUNICIPAL JAVIER DE VIANA", "DIRECCION": "GRECIA 3617" }, "geometry": { "type": "Point", "coordinates": [ -56.248946837692742, -34.886400420133945 ] } },
{ "type": "Feature", "properties": { "NOMBRE": "BIBLIOTECA MUNICIPAL MARIA VITTORI", "DIRECCION": "MOLTKE 1408" }, "geometry": { "type": "Point", "coordinates": [ -56.205533532430699, -34.828776113444086 ] } },
{ "type": "Feature", "properties": { "NOMBRE": "BIBLIOTECA MUNICIPAL ERNESTO HERRERA", "DIRECCION": null }, "geometry": { "type": "Point", "coordinates": [ -56.145359891789745, -34.895562512533211 ] } },
{ "type": "Feature", "properties": { "NOMBRE": "BIBLIOTECA CASA ABIERTA", "DIRECCION": null }, "geometry": { "type": "Point", "coordinates": [ -56.228493466678771, -34.852520107407798 ] } },
{ "type": "Feature", "properties": { "NOMBRE": "BIBLIOTECA MUNICIPAL EDUARDO ACEVEDO DIAZ", "DIRECCION": "AV SAYAGO 946" }, "geometry": { "type": "Point", "coordinates": [ -56.2168945557573, -34.834944363472552 ] } },
{ "type": "Feature", "properties": { "NOMBRE": "BIBLIOTECA MUNICIPAL FRANCISCO ESPINOLA", "DIRECCION": "RUTA 8 6850" }, "geometry": { "type": "Point", "coordinates": [ -56.100624355470579, -34.823020079202948 ] } },
{ "type": "Feature", "properties": { "NOMBRE": "BIBLIOTECA SERAFIN J GARC¡A", "DIRECCION": null }, "geometry": { "type": "Point", "coordinates": [ -56.189672937617075, -34.853402623726168 ] } },
{ "type": "Feature", "properties": { "NOMBRE": "MUSEO MUNICIPAL DE BELLAS ARTES JUAN MANUEL BLANES", "DIRECCION": null }, "geometry": { "type": "Point", "coordinates": [ -56.198504443826458, -34.853969912033683 ] } },
{ "type": "Feature", "properties": { "NOMBRE": "BIBLIOTECA CENTRO DE ESTADISTICAS NACIONALES Y COMERCIO INTERNACIONAL", "DIRECCION": null }, "geometry": { "type": "Point", "coordinates": [ -56.20599164978421, -34.907724812772734 ] } },
{ "type": "Feature", "properties": { "NOMBRE": "BIBLIOTECA FRANCISCO ESPINOLA", "DIRECCION": null }, "geometry": { "type": "Point", "coordinates": [ -56.10064481198431, -34.823923824768002 ] } },
{ "type": "Feature", "properties": { "NOMBRE": "BIBLIOTECA CENTRO URUGUAY INDEPENDIENTE", "DIRECCION": null }, "geometry": { "type": "Point", "coordinates": [ -56.185494439838841, -34.899314085751151 ] } },
{ "type": "Feature", "properties": { "NOMBRE": "BIBLIOTECA ASOCIACION ODONTOLOGICA URUGUAYA", "DIRECCION": null }, "geometry": { "type": "Point", "coordinates": [ -56.195866671047575, -34.910857312062532 ] } },
{ "type": "Feature", "properties": { "NOMBRE": "BIBLIOTECA PACO ESPINOLA", "DIRECCION": null }, "geometry": { "type": "Point", "coordinates": [ -56.271937719305228, -34.838025875947068 ] } },
{ "type": "Feature", "properties": { "NOMBRE": "BIBLIOTECA CAMARA DE COMERCIO FRANCESA DE MONTEVIDEO", "DIRECCION": null }, "geometry": { "type": "Point", "coordinates": [ -56.16128341466672, -34.896907921504848 ] } },
{ "type": "Feature", "properties": { "NOMBRE": "BIBLIOTECA 19 DE JUNIO", "DIRECCION": null }, "geometry": { "type": "Point", "coordinates": [ -56.240915803765567, -34.82321882057353 ] } },
{ "type": "Feature", "properties": { "NOMBRE": "BIBLIOTECA PRESIDENCIA DE LA REPUBLICA", "DIRECCION": null }, "geometry": { "type": "Point", "coordinates": [ -56.166675171481835, -34.869699764544457 ] } },
{ "type": "Feature", "properties": { "NOMBRE": "BIBLIOTECA ASOCIACION DE EMPLEADOS BANCARIOS DEL URUGUAY", "DIRECCION": null }, "geometry": { "type": "Point", "coordinates": [ -56.20076554798127, -34.909623889407705 ] } },
{ "type": "Feature", "properties": { "NOMBRE": "BIBLIOTECA COMISION TECNICA MIXTA DEL FRENTE MARITIMO", "DIRECCION": null }, "geometry": { "type": "Point", "coordinates": [ -56.201039281780986, -34.906318182438177 ] } },
{ "type": "Feature", "properties": { "NOMBRE": "BIBLIOTECA MINISTERIO DE ECONOMIA Y FINANZAS", "DIRECCION": null }, "geometry": { "type": "Point", "coordinates": [ -56.192944348763923, -34.904968250645346 ] } },
{ "type": "Feature", "properties": { "NOMBRE": "MUSEO AERONAUTICO", "DIRECCION": null }, "geometry": { "type": "Point", "coordinates": [ -56.151941746803161, -34.862049024899981 ] } },
{ "type": "Feature", "properties": { "NOMBRE": "MUSEO BLANDENGUES DE ARTIGAS", "DIRECCION": null }, "geometry": { "type": "Point", "coordinates": [ -56.163169249417479, -34.858570874865187 ] } },
{ "type": "Feature", "properties": { "NOMBRE": "MUSEO CASAQUINTA DE LUIS A DE HERRERA", "DIRECCION": null }, "geometry": { "type": "Point", "coordinates": [ -56.1764612022683, -34.863940605242668 ] } },
{ "type": "Feature", "properties": { "NOMBRE": "MUSEO DEL DESCUBRIMIENTO - APOSTADERO NAVAL", "DIRECCION": null }, "geometry": { "type": "Point", "coordinates": [ -56.208689477154323, -34.904426564692024 ] } },
{ "type": "Feature", "properties": { "NOMBRE": "MUSEO MILITAR 18 DE MAYO DE 1811", "DIRECCION": null }, "geometry": { "type": "Point", "coordinates": [ -56.192789043062241, -34.908003332207748 ] } },
{ "type": "Feature", "properties": { "NOMBRE": "MUSEO MILITAR DE LA FORTALEZA GENERAL ARTIGAS", "DIRECCION": null }, "geometry": { "type": "Point", "coordinates": [ -56.25848553811106, -34.888592134092491 ] } },
{ "type": "Feature", "properties": { "NOMBRE": "MUSEO Y PARQUE FERNANDO GARCIA", "DIRECCION": null }, "geometry": { "type": "Point", "coordinates": [ -56.072761987704411, -34.870371961076749 ] } },
{ "type": "Feature", "properties": { "NOMBRE": "MUSEO NAVAL", "DIRECCION": null }, "geometry": { "type": "Point", "coordinates": [ -56.13376118789698, -34.910128657805828 ] } },
{ "type": "Feature", "properties": { "NOMBRE": "MUSEO ZOOLOGICO DOLORES PEREIRA DE ROSELL - VILLA DOLORES", "DIRECCION": null }, "geometry": { "type": "Point", "coordinates": [ -56.144907601648562, -34.902551017589538 ] } },
{ "type": "Feature", "properties": { "NOMBRE": "BIBLIOTECA MINISTERIO DE TURISMO", "DIRECCION": null }, "geometry": { "type": "Point", "coordinates": [ -56.194233410386374, -34.9052284304572 ] } },
{ "type": "Feature", "properties": { "NOMBRE": "MUSEO DE HISTORIA NATURAL", "DIRECCION": null }, "geometry": { "type": "Point", "coordinates": [ -56.175641017244452, -34.903369562373967 ] } },
{ "type": "Feature", "properties": { "NOMBRE": "BIBLIOTECA ADMINISTRACION DE FERROCARRILES DEL ESTADO", "DIRECCION": null }, "geometry": { "type": "Point", "coordinates": [ -56.204809185934899, -34.825549276530623 ] } },
{ "type": "Feature", "properties": { "NOMBRE": "BIBLIOTECA TEATRAL FLORENCIO SANCHEZ", "DIRECCION": null }, "geometry": { "type": "Point", "coordinates": [ -56.190661317100179, -34.902774864397244 ] } },
{ "type": "Feature", "properties": { "NOMBRE": "BIBLIOTECA FACULTAD DE QUIMICA - UDELAR", "DIRECCION": null }, "geometry": { "type": "Point", "coordinates": [ -56.185866942060173, -34.888362010936525 ] } },
{ "type": "Feature", "properties": { "NOMBRE": "BIBLIOTECA COVI 13", "DIRECCION": null }, "geometry": { "type": "Point", "coordinates": [ -56.229237811873041, -34.830159509711926 ] } },
{ "type": "Feature", "properties": { "NOMBRE": "BIBLIOTECA COVISUNCA", "DIRECCION": null }, "geometry": { "type": "Point", "coordinates": [ -56.098504421393024, -34.880927973122994 ] } },
{ "type": "Feature", "properties": { "NOMBRE": "BIBLIOTECA INSTITUTO TEOLOGICO DEL URUGUAY MONSEÑOR MARIANO SOLER", "DIRECCION": null }, "geometry": { "type": "Point", "coordinates": [ -56.197499850410011, -34.881016776522415 ] } },
{ "type": "Feature", "properties": { "NOMBRE": "BIBLIOTECA CENTRO DE PROTECCION DE CHOFERES", "DIRECCION": null }, "geometry": { "type": "Point", "coordinates": [ -56.189483440607702, -34.907592858061641 ] } },
{ "type": "Feature", "properties": { "NOMBRE": "BIBLIOTECA DR MANUEL ALBO - CASA DE GALICIA", "DIRECCION": null }, "geometry": { "type": "Point", "coordinates": [ -56.208243406026071, -34.842330615010034 ] } },
{ "type": "Feature", "properties": { "NOMBRE": "BIBLIOTECA INSTITUTO URUGUAYO DE NORMAS TECNICAS", "DIRECCION": null }, "geometry": { "type": "Point", "coordinates": [ -56.19895086024534, -34.907042137831255 ] } },
{ "type": "Feature", "properties": { "NOMBRE": "BIBLIOTECA INSTITUTO NACIONAL DE LA JUVENTUD", "DIRECCION": null }, "geometry": { "type": "Point", "coordinates": [ -56.175989968286522, -34.901774871238317 ] } },
{ "type": "Feature", "properties": { "NOMBRE": "BIBLIOTECA AMNISTIA INTERNACIONAL - SECCION URUGUAY", "DIRECCION": null }, "geometry": { "type": "Point", "coordinates": [ -56.197798258735034, -34.905321902296912 ] } },
{ "type": "Feature", "properties": { "NOMBRE": "BIBLIOTECA BANCO DE SEGUROS DEL ESTADO", "DIRECCION": null }, "geometry": { "type": "Point", "coordinates": [ -56.19319578617467, -34.903905502562132 ] } },
{ "type": "Feature", "properties": { "NOMBRE": "DEPARTAMENTO DE BIBLIOTECA - ANEP", "DIRECCION": null }, "geometry": { "type": "Point", "coordinates": [ -56.178612977813863, -34.911569930255347 ] } },
{ "type": "Feature", "properties": { "NOMBRE": "BIBLIOTECA MINISTERIO DE DEFENSA NACIONAL", "DIRECCION": null }, "geometry": { "type": "Point", "coordinates": [ -56.161428923814746, -34.891101789645418 ] } },
{ "type": "Feature", "properties": { "NOMBRE": "BIBLIOTECA CLUB BANCO REPUBLICA", "DIRECCION": null }, "geometry": { "type": "Point", "coordinates": [ -56.14346076166251, -34.908771849847952 ] } },
{ "type": "Feature", "properties": { "NOMBRE": "BIBLIOTECA NUESTROS NIÑOS", "DIRECCION": null }, "geometry": { "type": "Point", "coordinates": [ -56.18617295515007, -34.905696321613931 ] } },
{ "type": "Feature", "properties": { "NOMBRE": "BIBLIOTECA CATALINA DEL OESTE", "DIRECCION": null }, "geometry": { "type": "Point", "coordinates": [ -56.291882046489526, -34.894299018495374 ] } },
{ "type": "Feature", "properties": { "NOMBRE": "BIBLIOTECA CINEMATECA URUGUAYA", "DIRECCION": null }, "geometry": { "type": "Point", "coordinates": [ -56.181251932328912, -34.906726633226548 ] } },
{ "type": "Feature", "properties": { "NOMBRE": "BIBLIOTECA BANCO CENTRAL DEL URUGUAY", "DIRECCION": null }, "geometry": { "type": "Point", "coordinates": [ -56.199848178084061, -34.903093894131942 ] } },
{ "type": "Feature", "properties": { "NOMBRE": "BIBLIOTECA CAJA DE JUBILACIONES Y PENSIONES BANCARIAS", "DIRECCION": null }, "geometry": { "type": "Point", "coordinates": [ -56.208376257734187, -34.90861223275229 ] } },
{ "type": "Feature", "properties": { "NOMBRE": "BIBLIOTECA CENTRO DE INVESTIGACIONES ECONOMICAS", "DIRECCION": null }, "geometry": { "type": "Point", "coordinates": [ -56.187485309285471, -34.905732336550763 ] } },
{ "type": "Feature", "properties": { "NOMBRE": "BIBLIOTECA SUPREMA CORTE DE JUSTICIA", "DIRECCION": null }, "geometry": { "type": "Point", "coordinates": [ -56.191153494842006, -34.906562287324746 ] } },
{ "type": "Feature", "properties": { "NOMBRE": "BIBLIOTECA EMBAJADA ARGENTINA", "DIRECCION": null }, "geometry": { "type": "Point", "coordinates": [ -56.190375813102889, -34.903680805136851 ] } },
{ "type": "Feature", "properties": { "NOMBRE": "BIBLIOTECA ESCUELA NAVAL", "DIRECCION": null }, "geometry": { "type": "Point", "coordinates": [ -56.040519563805091, -34.884138385771479 ] } },
{ "type": "Feature", "properties": { "NOMBRE": "BIBLIOTECA JUNTA NACIONAL DE DROGAS", "DIRECCION": null }, "geometry": { "type": "Point", "coordinates": [ -56.166675171481835, -34.869699764544457 ] } },
{ "type": "Feature", "properties": { "NOMBRE": "BIBLIOTECA PODER LEGISLATIVO", "DIRECCION": null }, "geometry": { "type": "Point", "coordinates": [ -56.187171190292581, -34.890871442462014 ] } },
{ "type": "Feature", "properties": { "NOMBRE": "BIBLIOTECA 33 ORIENTALES", "DIRECCION": null }, "geometry": { "type": "Point", "coordinates": [ -56.165438791835356, -34.862088530286869 ] } },
{ "type": "Feature", "properties": { "NOMBRE": "BIBLIOTECA SERVICIO DE REHABILITACION SOCIAL", "DIRECCION": null }, "geometry": { "type": "Point", "coordinates": [ -56.201463628799083, -34.904355716026409 ] } },
{ "type": "Feature", "properties": { "NOMBRE": "BIBLIOTECA INSTITUTO CULTURAL ANGLO-URUGUAYO", "DIRECCION": null }, "geometry": { "type": "Point", "coordinates": [ -56.184905423593897, -34.906470156553517 ] } },
{ "type": "Feature", "properties": { "NOMBRE": "BIBLIOTECA LIGA URUGUAYA CONTRA LA TUBERCULOSIS", "DIRECCION": null }, "geometry": { "type": "Point", "coordinates": [ -56.178696533493238, -34.904652157764048 ] } },
{ "type": "Feature", "properties": { "NOMBRE": "BIBLIOTECA INSTITUTO DEL TERCER MUNDO", "DIRECCION": null }, "geometry": { "type": "Point", "coordinates": [ -56.172928133538008, -34.908831183713701 ] } },
{ "type": "Feature", "properties": { "NOMBRE": "BIBLIOTECA CENTRO DE INVESTIGACIONES Y ESTUDIOS FAMILIARES", "DIRECCION": null }, "geometry": { "type": "Point", "coordinates": [ -56.170898216275354, -34.903225407961223 ] } },
{ "type": "Feature", "properties": { "NOMBRE": "BIBLIOTECA INSTITUTO DE INVESTIGACION Y DESARROLLO", "DIRECCION": null }, "geometry": { "type": "Point", "coordinates": [ -56.18936064103584, -34.90679984320689 ] } },
{ "type": "Feature", "properties": { "NOMBRE": "BIBLIOTECA OFICINA INTERNACIONAL CATOLICA DE LA INFANCIA", "DIRECCION": null }, "geometry": { "type": "Point", "coordinates": [ -56.15685362154256, -34.88562236124158 ] } },
{ "type": "Feature", "properties": { "NOMBRE": "BIBLIOTECA COMPAÑIA BAO SA", "DIRECCION": null }, "geometry": { "type": "Point", "coordinates": [ -56.231699919492705, -34.861469759157437 ] } },
{ "type": "Feature", "properties": { "NOMBRE": "BIBLIOTECA ALIANZA FRANCESA DEL URUGUAY", "DIRECCION": null }, "geometry": { "type": "Point", "coordinates": [ -56.177928582967041, -34.902760420240121 ] } },
{ "type": "Feature", "properties": { "NOMBRE": "BIBLIOTECA NUESTROS HIJOS", "DIRECCION": null }, "geometry": { "type": "Point", "coordinates": [ -56.058689859422294, -34.893086381974776 ] } },
{ "type": "Feature", "properties": { "NOMBRE": "BIBLIOTECA CAJA NOTARIAL DE SEGURIDAD SOCIAL", "DIRECCION": null }, "geometry": { "type": "Point", "coordinates": [ -56.178853497357558, -34.903154665371737 ] } },
{ "type": "Feature", "properties": { "NOMBRE": "BIBLIOTECA CENTRO DE INFORMACIONES Y ESTUDIOS DEL URUGUAY", "DIRECCION": null }, "geometry": { "type": "Point", "coordinates": [ -56.174900857572901, -34.908567818482098 ] } },
{ "type": "Feature", "properties": { "NOMBRE": "BIBLIOTECA CENTRO NACIONAL DE QUEMADOS", "DIRECCION": null }, "geometry": { "type": "Point", "coordinates": [ -56.153150442358822, -34.891305088616448 ] } },
{ "type": "Feature", "properties": { "NOMBRE": "BIBLIOTECA CLUB BANCO HIPOTECARIO", "DIRECCION": null }, "geometry": { "type": "Point", "coordinates": [ -56.168799814818286, -34.897336949325847 ] } },
{ "type": "Feature", "properties": { "NOMBRE": "BIBLIOTECA COLEGIO DE ABOGADOS DEL URUGUAY", "DIRECCION": null }, "geometry": { "type": "Point", "coordinates": [ -56.194498859839072, -34.906248266202255 ] } },
{ "type": "Feature", "properties": { "NOMBRE": "BIBLIOTECA COLEGIO DE CONTADORES, ECONOMISTAS Y ADMINISTRADORES DEL URUGUAY", "DIRECCION": null }, "geometry": { "type": "Point", "coordinates": [ -56.191289718287379, -34.900046075855869 ] } },
{ "type": "Feature", "properties": { "NOMBRE": "BIBLIOTECA COMISION HONORARIA PARA LA LUCHA ANTITUBERCULOSA Y ENFERMEDADES PREVALENTES", "DIRECCION": null }, "geometry": { "type": "Point", "coordinates": [ -56.168396668884895, -34.898710886697039 ] } },
{ "type": "Feature", "properties": { "NOMBRE": "BIBLIOTECA COMISION NACIONAL PUENTE BUENOS AIRES-COLONIA", "DIRECCION": null }, "geometry": { "type": "Point", "coordinates": [ -56.203552468370617, -34.906051496414314 ] } },
{ "type": "Feature", "properties": { "NOMBRE": "BIBLIOTECA COMITE NACIONAL DE CALIDAD", "DIRECCION": null }, "geometry": { "type": "Point", "coordinates": [ -56.19823834503714, -34.90614128899702 ] } },
{ "type": "Feature", "properties": { "NOMBRE": "BIBLIOTECA COOPERATIVA UTE ANTEL", "DIRECCION": null }, "geometry": { "type": "Point", "coordinates": [ -56.188357496279849, -34.888689919431826 ] } },
{ "type": "Feature", "properties": { "NOMBRE": "BIBLIOTECA EMBAJADA DE LOS ESTADOS UNIDOS DE AMERICA", "DIRECCION": null }, "geometry": { "type": "Point", "coordinates": [ -56.176201130151284, -34.91324721018244 ] } },
{ "type": "Feature", "properties": { "NOMBRE": "BIBLIOTECA FUNDACION PLENARIO MUJERES DEL URUGUAY", "DIRECCION": null }, "geometry": { "type": "Point", "coordinates": [ -56.183632665767497, -34.901814137291652 ] } },
{ "type": "Feature", "properties": { "NOMBRE": "BIBLIOTECA INSTITUTO GOETHE", "DIRECCION": null }, "geometry": { "type": "Point", "coordinates": [ -56.182559557448663, -34.908170834887883 ] } },
{ "type": "Feature", "properties": { "NOMBRE": "BIBLIOTECA INSTITUTO NACIONAL DE CARNES", "DIRECCION": null }, "geometry": { "type": "Point", "coordinates": [ -56.20438755057134, -34.906328326002395 ] } },
{ "type": "Feature", "properties": { "NOMBRE": "BIBLIOTECA INSTITUTO NACIONAL DE LA FAMILIA Y LA MUJER", "DIRECCION": null }, "geometry": { "type": "Point", "coordinates": [ -56.203262487752625, -34.908910222629203 ] } },
{ "type": "Feature", "properties": { "NOMBRE": "BIBLIOTECA LABORATORIO ROEMMERS - DEPARTAMENTO TECNICO", "DIRECCION": null }, "geometry": { "type": "Point", "coordinates": [ -56.124920635160464, -34.843492892162871 ] } },
{ "type": "Feature", "properties": { "NOMBRE": "BIBLIOTECA LABORATORIOS CAILLON & HAMONET", "DIRECCION": null }, "geometry": { "type": "Point", "coordinates": [ -56.086395865242004, -34.883758332976669 ] } },
{ "type": "Feature", "properties": { "NOMBRE": "BIBLIOTECA MINISTERIO DE TRABAJO Y SEGURIDAD SOCIAL", "DIRECCION": null }, "geometry": { "type": "Point", "coordinates": [ -56.202235065065921, -34.903483502624866 ] } },
{ "type": "Feature", "properties": { "NOMBRE": "BIBLIOTECA MINISTERIO DE VIVIENDA, ORDENAMIENTO TERRITORIAL Y MEDIO AMBIENTE", "DIRECCION": null }, "geometry": { "type": "Point", "coordinates": [ -56.207401674660126, -34.906888385323448 ] } },
{ "type": "Feature", "properties": { "NOMBRE": "BIBLIOTECA MINISTERIO DEL INTERIOR", "DIRECCION": null }, "geometry": { "type": "Point", "coordinates": [ -56.195184487395878, -34.904206600239334 ] } },
{ "type": "Feature", "properties": { "NOMBRE": "BIBLIOTECA OBRAS SANITARIAS DEL ESTADO", "DIRECCION": null }, "geometry": { "type": "Point", "coordinates": [ -56.180649654846249, -34.906514331414314 ] } },
{ "type": "Feature", "properties": { "NOMBRE": "BIBLIOTECA INSTITUTO ARTIGAS DEL SERVICIO EXTERIOR - MINISTERIO DE RELACIONES EXTERIORES", "DIRECCION": null }, "geometry": { "type": "Point", "coordinates": [ -56.191015569997852, -34.904985257985153 ] } },
{ "type": "Feature", "properties": { "NOMBRE": "BIBLIOTECA UNIVERSIDAD DE LA EMPRESA", "DIRECCION": null }, "geometry": { "type": "Point", "coordinates": [ -56.195460629896942, -34.908034361870776 ] } },
{ "type": "Feature", "properties": { "NOMBRE": "BIBLIOTECA UNIVERSIDAD DE MONTEVIDEO", "DIRECCION": null }, "geometry": { "type": "Point", "coordinates": [ -56.160345252453105, -34.8978360003087 ] } },
{ "type": "Feature", "properties": { "NOMBRE": "BIBLIOTECA ASOCIACION CULTURAL Y SOCIAL URUGUAY NEGRO", "DIRECCION": null }, "geometry": { "type": "Point", "coordinates": [ -56.180407719883675, -34.909458944680559 ] } },
{ "type": "Feature", "properties": { "NOMBRE": "BIBLIOTECA ASOCIACION DE JUBILADOS Y PENSIONISTAS BANCARIOS DEL URUGUAY", "DIRECCION": null }, "geometry": { "type": "Point", "coordinates": [ -56.190063406621043, -34.908328415680216 ] } },
{ "type": "Feature", "properties": { "NOMBRE": "BIBLIOTECA ASOCIACION DE JUBILADOS Y PENSIONISTAS DEL BUCEO", "DIRECCION": null }, "geometry": { "type": "Point", "coordinates": [ -56.122313722039792, -34.8961349924774 ] } },
{ "type": "Feature", "properties": { "NOMBRE": "BIBLIOTECA CLUB DEL LIBRO PEGASO", "DIRECCION": null }, "geometry": { "type": "Point", "coordinates": [ -56.144088570862607, -34.884966998876195 ] } },
{ "type": "Feature", "properties": { "NOMBRE": "BIBLIOTECA COMPLEJO JUANA DE AMERICA", "DIRECCION": null }, "geometry": { "type": "Point", "coordinates": [ -56.127590470541598, -34.849822126183312 ] } },
{ "type": "Feature", "properties": { "NOMBRE": "BIBLIOTECA CUENCA DE POCITOS", "DIRECCION": null }, "geometry": { "type": "Point", "coordinates": [ -56.145149057488993, -34.898299623945952 ] } },
{ "type": "Feature", "properties": { "NOMBRE": "BIBLIOTECA DE ZONA 6", "DIRECCION": null }, "geometry": { "type": "Point", "coordinates": [ -56.09950944962808, -34.872042743458415 ] } },
{ "type": "Feature", "properties": { "NOMBRE": "BIBLIOTECA EL HORNERO", "DIRECCION": null }, "geometry": { "type": "Point", "coordinates": [ -56.137236260990242, -34.838209608658332 ] } },
{ "type": "Feature", "properties": { "NOMBRE": "BIBLIOTECA JUAN JOSE MOROSOLI", "DIRECCION": null }, "geometry": { "type": "Point", "coordinates": [ -56.172984395217064, -34.898319995535914 ] } },
{ "type": "Feature", "properties": { "NOMBRE": "BIBLIOTECA MESA 1", "DIRECCION": null }, "geometry": { "type": "Point", "coordinates": [ -56.107762856855864, -34.86697510701763 ] } },
{ "type": "Feature", "properties": { "NOMBRE": "BIBLIOTECA NUEVO CAPRA", "DIRECCION": null }, "geometry": { "type": "Point", "coordinates": [ -56.10083548855588, -34.794986166268579 ] } },
{ "type": "Feature", "properties": { "NOMBRE": "BIBLIOTECA ORIENTAL COLON", "DIRECCION": null }, "geometry": { "type": "Point", "coordinates": [ -56.206428786543249, -34.812647282901942 ] } },
{ "type": "Feature", "properties": { "NOMBRE": "BIBLIOTECA PALOMAR DE CAVIA", "DIRECCION": null }, "geometry": { "type": "Point", "coordinates": [ -56.16219978922998, -34.89471606675562 ] } },
{ "type": "Feature", "properties": { "NOMBRE": "BIBLIOTECA SANTA CATALINA DEL OESTE", "DIRECCION": null }, "geometry": { "type": "Point", "coordinates": [ -56.292927974423478, -34.894479948317183 ] } },
{ "type": "Feature", "properties": { "NOMBRE": "BIBLIOTECA VILLA COLON", "DIRECCION": null }, "geometry": { "type": "Point", "coordinates": [ -56.247131073495986, -34.796943006930974 ] } },
{ "type": "Feature", "properties": { "NOMBRE": "BIBLIOTECA EL CANTARO FRESCO", "DIRECCION": null }, "geometry": { "type": "Point", "coordinates": [ -56.162527427545363, -34.871846975975096 ] } },
{ "type": "Feature", "properties": { "NOMBRE": "BIBLIOTECA MUNICIPAL JOAQUIN DE SALTERAIN", "DIRECCION": null }, "geometry": { "type": "Point", "coordinates": [ -56.202690456268023, -34.906879300404398 ] } },
{ "type": "Feature", "properties": { "NOMBRE": "MUSEO DE LA CASA DE GOBIERNO", "DIRECCION": null }, "geometry": { "type": "Point", "coordinates": [ -56.199448123980432, -34.907079270751105 ] } },
{ "type": "Feature", "properties": { "NOMBRE": "MUSEO DE LA FARMACIA", "DIRECCION": null }, "geometry": { "type": "Point", "coordinates": [ -56.195410146068788, -34.859796297052604 ] } },
{ "type": "Feature", "properties": { "NOMBRE": "MUSEO NUMISMATICO - INSTITUTO DE NUMISMATICA", "DIRECCION": null }, "geometry": { "type": "Point", "coordinates": [ -56.187664000017016, -34.907857228689089 ] } },
{ "type": "Feature", "properties": { "NOMBRE": "MUSEO Y ESCUELA CIVICA HISTORICA JUAN ZORRILLA DE SAN MARTIN", "DIRECCION": null }, "geometry": { "type": "Point", "coordinates": [ -56.159240396558303, -34.927899230641437 ] } },
{ "type": "Feature", "properties": { "NOMBRE": "MUSEO NACIONAL DE ARTES VISUALES", "DIRECCION": null }, "geometry": { "type": "Point", "coordinates": [ -56.164986059630941, -34.91241196967794 ] } },
{ "type": "Feature", "properties": { "NOMBRE": "MUSEO RECORDATORIO DEL HOLOCAUSTO", "DIRECCION": null }, "geometry": { "type": "Point", "coordinates": [ -56.192739583307294, -34.908923886801681 ] } },
{ "type": "Feature", "properties": { "NOMBRE": "MUSEO HISTORICO FRANCISCANO SAN BERNARDINO DE MONTEVIDEO", "DIRECCION": null }, "geometry": { "type": "Point", "coordinates": [ -56.190395025595855, -34.908748050847258 ] } },
{ "type": "Feature", "properties": { "NOMBRE": "MUSEO DE LA PALABRA", "DIRECCION": null }, "geometry": { "type": "Point", "coordinates": [ -56.204084035974674, -34.907302168417168 ] } },
{ "type": "Feature", "properties": { "NOMBRE": "MUSEO DE ARTE DECORATIVO - PALACIO TARANCO", "DIRECCION": null }, "geometry": { "type": "Point", "coordinates": [ -56.20827844772915, -34.907170255009049 ] } },
{ "type": "Feature", "properties": { "NOMBRE": "MUSEO CASA DE GARIBALDI", "DIRECCION": null }, "geometry": { "type": "Point", "coordinates": [ -56.209243930375735, -34.907102011516081 ] } },
{ "type": "Feature", "properties": { "NOMBRE": "MUSEO Y ARCHIVO HISTORICO MUNICIPAL - CABILDO", "DIRECCION": null }, "geometry": { "type": "Point", "coordinates": [ -56.20291686980584, -34.906598029302245 ] } },
{ "type": "Feature", "properties": { "NOMBRE": "MUSEO TORRES GARCIA", "DIRECCION": null }, "geometry": { "type": "Point", "coordinates": [ -56.201372874613007, -34.906476378268124 ] } },
{ "type": "Feature", "properties": { "NOMBRE": "MUSEO DE ARTE CONTEMPORANEO - EL PAIS", "DIRECCION": null }, "geometry": { "type": "Point", "coordinates": [ -56.19086854942941, -34.906452680010297 ] } },
{ "type": "Feature", "properties": { "NOMBRE": "MUSEO ROMANTICO - CASA DE MONTERO", "DIRECCION": null }, "geometry": { "type": "Point", "coordinates": [ -56.20702099792797, -34.906392061434531 ] } },
{ "type": "Feature", "properties": { "NOMBRE": "MUSEO DEL GAUCHO Y DE LA MONEDA", "DIRECCION": null }, "geometry": { "type": "Point", "coordinates": [ -56.194894350533033, -34.906276639692798 ] } },
{ "type": "Feature", "properties": { "NOMBRE": "MUSEO PEDAGOGICO JOSE PEDRO VARELA", "DIRECCION": null }, "geometry": { "type": "Point", "coordinates": [ -56.190798608869663, -34.905308121180951 ] } },
{ "type": "Feature", "properties": { "NOMBRE": "MUSEO DEL AUTOMOVIL - AUTOMOVIL CLUB DEL URUGUAY", "DIRECCION": null }, "geometry": { "type": "Point", "coordinates": [ -56.188873832233725, -34.904673606134452 ] } },
{ "type": "Feature", "properties": { "NOMBRE": "MUSEO ENGELMAN-OST", "DIRECCION": null }, "geometry": { "type": "Point", "coordinates": [ -56.191454247550389, -34.904413881050942 ] } },
{ "type": "Feature", "properties": { "NOMBRE": "MUSEO ZOOLOGICO DAMASO ANTONIO LARRANAGA", "DIRECCION": null }, "geometry": { "type": "Point", "coordinates": [ -56.12347890521778, -34.90337222379047 ] } },
{ "type": "Feature", "properties": { "NOMBRE": "MUSEO PLANETARIO MUNICIPAL AGRM GERMAN BARBATO", "DIRECCION": null }, "geometry": { "type": "Point", "coordinates": [ -56.144599861507587, -34.901512172094826 ] } },
{ "type": "Feature", "properties": { "NOMBRE": "MUSEO DE EGIPTOLOGIA", "DIRECCION": null }, "geometry": { "type": "Point", "coordinates": [ -56.150088060688617, -34.898523924152492 ] } },
{ "type": "Feature", "properties": { "NOMBRE": "MUSEO CASA DE RIVERA", "DIRECCION": null }, "geometry": { "type": "Point", "coordinates": [ -56.206607453964523, -34.90701975559351 ] } },
{ "type": "Feature", "properties": { "NOMBRE": "MUSEO DE GEOLOGIA Y MINERIA", "DIRECCION": null }, "geometry": { "type": "Point", "coordinates": [ -56.20114318866267, -34.877062574242188 ] } },
{ "type": "Feature", "properties": { "NOMBRE": "MUSEO Y JARDIN BOTANICO PROFESOR ATILIO LOMBARDO", "DIRECCION": null }, "geometry": { "type": "Point", "coordinates": [ -56.204571376008971, -34.858130055218886 ] } },
{ "type": "Feature", "properties": { "NOMBRE": "MUSEO NACIONAL DE ANTROPOLOGIA", "DIRECCION": null }, "geometry": { "type": "Point", "coordinates": [ -56.199835605101839, -34.845251821471926 ] } },
{ "type": "Feature", "properties": { "NOMBRE": "MUSEO PARQUE ZOOLOGICO LECOCQ", "DIRECCION": null }, "geometry": { "type": "Point", "coordinates": [ -56.335427547514385, -34.799919339255325 ] } },
{ "type": "Feature", "properties": { "NOMBRE": "MUSEO COLEGIO PIO DE VILLA COLON", "DIRECCION": null }, "geometry": { "type": "Point", "coordinates": [ -56.248476223731934, -34.796118279434836 ] } },
{ "type": "Feature", "properties": { "NOMBRE": "BIBLIOTECA ASOCIACION DE DECORADORES Y DISEÑADORES DE INTERIORES PROFESIONALES", "DIRECCION": null }, "geometry": { "type": "Point", "coordinates": [ -56.170726989663009, -34.908994135907314 ] } },
{ "type": "Feature", "properties": { "NOMBRE": "BIBLIOTECA ASOCIACION DE DIABETICOS DEL URUGUAY", "DIRECCION": null }, "geometry": { "type": "Point", "coordinates": [ -56.192436478242541, -34.907474453123662 ] } },
{ "type": "Feature", "properties": { "NOMBRE": "BIBLIOTECA ASOCIACION DE PSIQUIATRIA Y PSICOPATOLOGIA DE LA INFANCIA Y ADOLESCENCIA", "DIRECCION": null }, "geometry": { "type": "Point", "coordinates": [ -56.166377351107826, -34.879807994951122 ] } },
{ "type": "Feature", "properties": { "NOMBRE": "BIBLIOTECA ASOCIACION ESPAÑOLA 1RA DE SOCORROS MUTOS", "DIRECCION": null }, "geometry": { "type": "Point", "coordinates": [ -56.164540335880353, -34.902063591744827 ] } },
{ "type": "Feature", "properties": { "NOMBRE": "BIBLIOTECA ASOCIACION PSICOANALITICA DEL URUGUAY", "DIRECCION": null }, "geometry": { "type": "Point", "coordinates": [ -56.181492623223548, -34.907954421672343 ] } },
{ "type": "Feature", "properties": { "NOMBRE": "BIBLIOTECA ASOCIACION REGIONAL DE EMPRESAS DE PETROLEO Y GAS NATURAL EN LATINOAMERICA Y EL CARIBE", "DIRECCION": null }, "geometry": { "type": "Point", "coordinates": [ -56.164809813572894, -34.910806444747514 ] } },
{ "type": "Feature", "properties": { "NOMBRE": "BIBLIOTECA ASOCIACION RURAL DEL URUGUAY", "DIRECCION": null }, "geometry": { "type": "Point", "coordinates": [ -56.198081158777057, -34.903631653245519 ] } },
{ "type": "Feature", "properties": { "NOMBRE": "BIBLIOTECA ASOCIACION URUGUAYA DE PSICOANALISIS DE LAS CONFIGURACIONES VINCULARES", "DIRECCION": null }, "geometry": { "type": "Point", "coordinates": [ -56.167534278754211, -34.907472035621012 ] } },
{ "type": "Feature", "properties": { "NOMBRE": "BIBLIOTECA ASOCIACION URUGUAYA DE PSICOTERAPIA PSICOANALITICA", "DIRECCION": null }, "geometry": { "type": "Point", "coordinates": [ -56.167221959817773, -34.907071854471717 ] } },
{ "type": "Feature", "properties": { "NOMBRE": "BIBLIOTECA ASOCIACION URUGUAYA DE SEGURIDAD PARA LA PREVENCION DE ACCIDENTES", "DIRECCION": null }, "geometry": { "type": "Point", "coordinates": [ -56.19319578617467, -34.903905502562132 ] } },
{ "type": "Feature", "properties": { "NOMBRE": "BIBLIOTECA BANCO DE LA REPUBLICA ORIENTAL DEL URUGUAY - EL GAUCHO", "DIRECCION": null }, "geometry": { "type": "Point", "coordinates": [ -56.208514791164376, -34.905809446513473 ] } },
{ "type": "Feature", "properties": { "NOMBRE": "BIBLIOTECA BANCO DE LA REPUBLICA ORIENTAL DEL URUGUAY - CIUDAD VIEJA", "DIRECCION": null }, "geometry": { "type": "Point", "coordinates": [ -56.18465111450903, -34.906190462133743 ] } },
{ "type": "Feature", "properties": { "NOMBRE": "BIBLIOTECA BANCO DE PREVISION SOCIAL", "DIRECCION": null }, "geometry": { "type": "Point", "coordinates": [ -56.176144885760657, -34.900155972915677 ] } },
{ "type": "Feature", "properties": { "NOMBRE": "BIBLIOTECA EUGENIO ANSINA", "DIRECCION": null }, "geometry": { "type": "Point", "coordinates": [ -56.222399468716766, -34.844882242961546 ] } },
{ "type": "Feature", "properties": { "NOMBRE": "BIBLIOTECA HERMOGENES ALVAREZ", "DIRECCION": null }, "geometry": { "type": "Point", "coordinates": [ -56.16425952956196, -34.899204009599778 ] } },
{ "type": "Feature", "properties": { "NOMBRE": "BIBLIOTECA NACIONAL", "DIRECCION": null }, "geometry": { "type": "Point", "coordinates": [ -56.177445119624302, -34.90257575083119 ] } },
{ "type": "Feature", "properties": { "NOMBRE": "BIBLIOTECA NACIONAL DE MEDICINA - HOSPITAL DE CLINICAS", "DIRECCION": null }, "geometry": { "type": "Point", "coordinates": [ -56.152615978442434, -34.890767864775 ] } },
{ "type": "Feature", "properties": { "NOMBRE": "BIBLIOTECA URUGUAYA PARA DISCAPACITADOS VISUALES", "DIRECCION": null }, "geometry": { "type": "Point", "coordinates": [ -56.212257837060193, -34.862710581631539 ] } },
{ "type": "Feature", "properties": { "NOMBRE": "BIBLIOTECA 26 DE MAYO - CENTRO CULTURAL LAVALLEJA", "DIRECCION": null }, "geometry": { "type": "Point", "coordinates": [ -56.192910190425799, -34.836630852952077 ] } },
{ "type": "Feature", "properties": { "NOMBRE": "BIBLIOTECA ALFONSO R CASTELAO - CASA DE GALICIA", "DIRECCION": null }, "geometry": { "type": "Point", "coordinates": [ -56.184264683019187, -34.904947805816768 ] } },
{ "type": "Feature", "properties": { "NOMBRE": "BIBLIOTECA ARCHIVO HISTORICO DIPLOMATICO - INSTITUTO ARTIGAS DEL SERVICIO EXTERIOR", "DIRECCION": null }, "geometry": { "type": "Point", "coordinates": [ -56.190139147655671, -34.904911456660926 ] } },
{ "type": "Feature", "properties": { "NOMBRE": "BIBLIOTECA ARCHIVO NACIONAL DE LA IMAGEN - SERVICIO OFICIAL DE RADIO, TELEVISION Y ESPECTACULOS", "DIRECCION": null }, "geometry": { "type": "Point", "coordinates": [ -56.206175861455343, -34.907996561374112 ] } },
{ "type": "Feature", "properties": { "NOMBRE": "BIBLIOTECA CENTRAL Y PUBLICACIONES - ANEP", "DIRECCION": null }, "geometry": { "type": "Point", "coordinates": [ -56.175641017244452, -34.903369562373967 ] } },
{ "type": "Feature", "properties": { "NOMBRE": "BIBLIOTECA CENTRO ARTIGAS-WASHINGTON - ALIANZA CULTURAL URUGUAY-EEUU", "DIRECCION": null }, "geometry": { "type": "Point", "coordinates": [ -56.192315858896663, -34.908477429502263 ] } },
{ "type": "Feature", "properties": { "NOMBRE": "BIBLIOTECA CENTRO DE ALTOS ESTUDIOS NACIONALES - MINISTERIO DE DEFENSA NACIONAL", "DIRECCION": null }, "geometry": { "type": "Point", "coordinates": [ -56.164148600534894, -34.900206970274802 ] } },
{ "type": "Feature", "properties": { "NOMBRE": "BIBLIOTECA CENTRO DE CAPACITACION Y PERFECCIONAMIENTO DOCENTE - ANEP", "DIRECCION": null }, "geometry": { "type": "Point", "coordinates": [ -56.149704986383149, -34.881983482941187 ] } },
{ "type": "Feature", "properties": { "NOMBRE": "BIBLIOTECA CENTRO DE CAPACITACION - ADMINISTRACION NACIONAL DE CORREOS", "DIRECCION": null }, "geometry": { "type": "Point", "coordinates": [ -56.205410793700231, -34.90774040502918 ] } },
{ "type": "Feature", "properties": { "NOMBRE": "BIBLIOTECA CENTRO DE DIAGNOSTICO COMPUTADO - TOMOGRAFIA COMPUTADA", "DIRECCION": null }, "geometry": { "type": "Point", "coordinates": [ -56.164974092392356, -34.888179162039329 ] } },
{ "type": "Feature", "properties": { "NOMBRE": "BIBLIOTECA CENTRO DE DOCUMENTACION E INFORMACION EN CANCER - COMISION HONORARIA DE LUCHA CONTRA EL CANCER", "DIRECCION": null }, "geometry": { "type": "Point", "coordinates": [ -56.173468164457148, -34.901398236357913 ] } },
{ "type": "Feature", "properties": { "NOMBRE": "BIBLIOTECA CENTRO DE DOCUMENTACION Y REFERENCIA AGROPECUARIA Y BIBLIOTECA CENTRAL - MGAP", "DIRECCION": null }, "geometry": { "type": "Point", "coordinates": [ -56.183424493684122, -34.905556504165766 ] } },
{ "type": "Feature", "properties": { "NOMBRE": "BIBLIOTECA CENTRO DE FORMACION Y ESTUDIOS - INAME", "DIRECCION": null }, "geometry": { "type": "Point", "coordinates": [ -56.205316749006712, -34.910126605696234 ] } },
{ "type": "Feature", "properties": { "NOMBRE": "BIBLIOTECA CENTRO DE GESTION TECNOLOGICA - CAMARA DE INDUSTRIAS DEL URUGUAY", "DIRECCION": null }, "geometry": { "type": "Point", "coordinates": [ -56.074312182702457, -34.87951969640519 ] } },
{ "type": "Feature", "properties": { "NOMBRE": "BIBLIOTECA CENTRO DE INFORMACION SOBRE REHABILITACION EN EL URUGUAY - COMISION NACIONAL HONORARIA DEL DISCAPACITADO", "DIRECCION": null }, "geometry": { "type": "Point", "coordinates": [ -56.176563153637424, -34.901391313996463 ] } },
{ "type": "Feature", "properties": { "NOMBRE": "BIBLIOTECA CENTRO DE INVESTIGACION Y DIFUSION AERONAUTICO-ESPACIAL - DIRECCION GENERAL DE AVIACION CIVIL", "DIRECCION": null }, "geometry": { "type": "Point", "coordinates": [ -56.195686125287821, -34.905175357165966 ] } },
{ "type": "Feature", "properties": { "NOMBRE": "BIBLIOTECA CENTRO DE MATEMATICA - FACULTAD DE CIENCIAS - UDELAR", "DIRECCION": null }, "geometry": { "type": "Point", "coordinates": [ -56.118734683224623, -34.88162552523481 ] } },
{ "type": "Feature", "properties": { "NOMBRE": "BIBLIOTECA CENTRO INTERAMERICANO DE INVESTIGACION Y DOCUMENTACION SOBRE FORMACION PROFESIONAL - OIT", "DIRECCION": null }, "geometry": { "type": "Point", "coordinates": [ -56.189789327672443, -34.903034619683964 ] } },
{ "type": "Feature", "properties": { "NOMBRE": "BIBLIOTECA CENTRO LATINOAMERICANO DE ECONOMIA HUMANA - CLAEH", "DIRECCION": null }, "geometry": { "type": "Point", "coordinates": [ -56.189882847172974, -34.90830907018691 ] } },
{ "type": "Feature", "properties": { "NOMBRE": "BIBLIOTECA CENTRO LATINOAMERICANO DE PERINATOLOGIA Y DESARROLLO HUMANO - CLAP", "DIRECCION": null }, "geometry": { "type": "Point", "coordinates": [ -56.152351849304054, -34.891307113152507 ] } },
{ "type": "Feature", "properties": { "NOMBRE": "BIBLIOTECA CENTRO MILITAR", "DIRECCION": null }, "geometry": { "type": "Point", "coordinates": [ -56.192436990450126, -34.902356372989701 ] } },
{ "type": "Feature", "properties": { "NOMBRE": "BIBLIOTECA CENTRO NACIONAL DE DOCUMENTACION E INFORMACION EN MEDICINA - HOSPITAL DE CL¡NICAS", "DIRECCION": null }, "geometry": { "type": "Point", "coordinates": [ -56.153150442358822, -34.891305088616448 ] } },
{ "type": "Feature", "properties": { "NOMBRE": "BIBLIOTECA CENTRO NACIONAL DE INFORMACION Y DOCUMENTACION - ANEP", "DIRECCION": null }, "geometry": { "type": "Point", "coordinates": [ -56.188611953538789, -34.89380762731863 ] } },
{ "type": "Feature", "properties": { "NOMBRE": "BIBLIOTECA COMISION DE INTEGRACION ENERGETICA REGIONAL", "DIRECCION": null }, "geometry": { "type": "Point", "coordinates": [ -56.163067445608171, -34.909767023772766 ] } },
{ "type": "Feature", "properties": { "NOMBRE": "BIBLIOTECA COMISION ECONOMICA PARA AMERICA LATINA Y EL CARIBE - CEPAL", "DIRECCION": null }, "geometry": { "type": "Point", "coordinates": [ -56.201119907692686, -34.907074557014383 ] } },
{ "type": "Feature", "properties": { "NOMBRE": "BIBLIOTECA COMISION SECTORIAL PARA EL MERCOSUR - OPP", "DIRECCION": null }, "geometry": { "type": "Point", "coordinates": [ -56.196931006598341, -34.906036216082413 ] } },
{ "type": "Feature", "properties": { "NOMBRE": "BIBLIOTECA CAMARA DE COMERCIO URUGUAY-ESTADOS UNIDOS", "DIRECCION": null }, "geometry": { "type": "Point", "coordinates": [ -56.198792355894817, -34.905803562363218 ] } },
{ "type": "Feature", "properties": { "NOMBRE": "BIBLIOTECA CAMARA DE COMERCIO URUGUAYO-ALEMANA", "DIRECCION": null }, "geometry": { "type": "Point", "coordinates": [ -56.198792355894817, -34.905803562363218 ] } },
{ "type": "Feature", "properties": { "NOMBRE": "BIBLIOTECA CAMARA DE COMERCIO URUGUAYO-ARGENTINA", "DIRECCION": null }, "geometry": { "type": "Point", "coordinates": [ -56.206090471558994, -34.906906368137662 ] } },
{ "type": "Feature", "properties": { "NOMBRE": "BIBLIOTECA CAMARA MERCANTIL DE PRODUCTOS DEL PAIS", "DIRECCION": null }, "geometry": { "type": "Point", "coordinates": [ -56.192441936150445, -34.894842673855422 ] } },
{ "type": "Feature", "properties": { "NOMBRE": "BIBLIOTECA CAMARA NACIONAL DE COMERCIO Y SERVICIOS DEL URUGUAY", "DIRECCION": null }, "geometry": { "type": "Point", "coordinates": [ -56.206090471558994, -34.906906368137662 ] } },
{ "type": "Feature", "properties": { "NOMBRE": "BIBLIOTECA CAMARA OFICIAL ESPAÑOLA DE COMERCIO, INDUSTRIA Y NAVEGACION", "DIRECCION": null }, "geometry": { "type": "Point", "coordinates": [ -56.204704311072305, -34.90807224504114 ] } },
{ "type": "Feature", "properties": { "NOMBRE": "BIBLIOTECA CONTADURIA GENERAL DE LA NACION - MEF", "DIRECCION": null }, "geometry": { "type": "Point", "coordinates": [ -56.192735778602312, -34.904710679559159 ] } },
{ "type": "Feature", "properties": { "NOMBRE": "BIBLIOTECA DAMASO A LARRAÑAGA - COMPAÑIA DE JESUS", "DIRECCION": null }, "geometry": { "type": "Point", "coordinates": [ -56.195640901927078, -34.874789639545853 ] } },
{ "type": "Feature", "properties": { "NOMBRE": "BIBLIOTECA DEPARTAMENTO ARCHIVO GRAFICO - DIRECCION NACIONAL DE TOPOGRAFIA - MTOP", "DIRECCION": null }, "geometry": { "type": "Point", "coordinates": [ -56.203789508851209, -34.906174056291896 ] } },
{ "type": "Feature", "properties": { "NOMBRE": "BIBLIOTECA DEPARTAMENTO DE CIENCIA POLITICA - FACULTAD DE CIENCIAS SOCIALES - UDELAR", "DIRECCION": null }, "geometry": { "type": "Point", "coordinates": [ -56.175730419135746, -34.904698019123352 ] } },
{ "type": "Feature", "properties": { "NOMBRE": "BIBLIOTECA DEPARTAMENTO DE ECONOMIA - FACULTAD DE CIENCIAS SOCIALES - UDELAR", "DIRECCION": null }, "geometry": { "type": "Point", "coordinates": [ -56.175730419135746, -34.904698019123352 ] } },
{ "type": "Feature", "properties": { "NOMBRE": "BIBLIOTECA DEPARTAMENTO DE ESTUDIOS ECONOMICOS - CAMARA DE INDUSTRIAS DEL URUGUAY", "DIRECCION": null }, "geometry": { "type": "Point", "coordinates": [ -56.077846345202971, -34.881512543947338 ] } },
{ "type": "Feature", "properties": { "NOMBRE": "BIBLIOTECA DEPARTAMENTO DE ESTUDIOS HISTORICOS - COMANDO GENERAL DEL EJERCITO", "DIRECCION": null }, "geometry": { "type": "Point", "coordinates": [ -56.192032165007944, -34.907352996439968 ] } },
{ "type": "Feature", "properties": { "NOMBRE": "BIBLIOTECA DEPARTAMENTO DE SOCIOLOGIA - FACULTAD DE CIENCIAS SOCIALES - UDELAR", "DIRECCION": null }, "geometry": { "type": "Point", "coordinates": [ -56.175814362288136, -34.904139567590718 ] } },
{ "type": "Feature", "properties": { "NOMBRE": "BIBLIOTECA DEPARTAMENTO DE TECNOLOGIA - DIVISION DE INDUSTRIA ANIMAL - MGAP", "DIRECCION": null }, "geometry": { "type": "Point", "coordinates": [ -56.183424493684122, -34.905556504165766 ] } },
{ "type": "Feature", "properties": { "NOMBRE": "BIBLIOTECA DEPARTAMENTO DE TRABAJO SOCIAL - FACULTAD DE CIENCIAS SOCIALES - UDELAR", "DIRECCION": null }, "geometry": { "type": "Point", "coordinates": [ -56.176413257735931, -34.904214448225694 ] } },
{ "type": "Feature", "properties": { "NOMBRE": "BIBLIOTECA DIRECCION DE ASUNTOS LIMITROFES - MINISTERIO DE RELACIONES EXTERIORES", "DIRECCION": null }, "geometry": { "type": "Point", "coordinates": [ -56.191015569997852, -34.904985257985153 ] } },
{ "type": "Feature", "properties": { "NOMBRE": "BIBLIOTECA DIRECCION DE ESTADISTICAS AGROPECUARIAS - MGAP", "DIRECCION": null }, "geometry": { "type": "Point", "coordinates": [ -56.183424493684122, -34.905556504165766 ] } },
{ "type": "Feature", "properties": { "NOMBRE": "BIBLIOTECA DIRECCION DE LABORATORIOS VETERINARIOS MIGUEL C RUBINO - MGAP", "DIRECCION": null }, "geometry": { "type": "Point", "coordinates": [ -56.076738390697578, -34.794691960841455 ] } },
{ "type": "Feature", "properties": { "NOMBRE": "BIBLIOTECA DIRECCION GENERAL DE COMERCIO, AREA COMERCIO EXTERIOR - MINISTERIO DE ECONOMIA Y FINANZAS", "DIRECCION": null }, "geometry": { "type": "Point", "coordinates": [ -56.190139147655671, -34.904911456660926 ] } },
{ "type": "Feature", "properties": { "NOMBRE": "BIBLIOTECA DIRECCION GENERAL FORESTAL - MGAP", "DIRECCION": null }, "geometry": { "type": "Point", "coordinates": [ -56.184901500399263, -34.905193070995942 ] } },
{ "type": "Feature", "properties": { "NOMBRE": "BIBLIOTECA DIRECCION NACIONAL DE HIDROGRAFIA - MTOP", "DIRECCION": null }, "geometry": { "type": "Point", "coordinates": [ -56.203789508851209, -34.906174056291896 ] } },
{ "type": "Feature", "properties": { "NOMBRE": "BIBLIOTECA DIRECCION NACIONAL DE LA PROPIEDAD INDUSTRIAL - MINISTERIO DE INDUSTRIA, ENERGIA Y MINERIA", "DIRECCION": null }, "geometry": { "type": "Point", "coordinates": [ -56.200938824935932, -34.905241281437348 ] } },
{ "type": "Feature", "properties": { "NOMBRE": "BIBLIOTECA DIRECCION NACIONAL DE INDUSTRIAS - MINISTERIO DE INDUSTRIA, ENERGIA Y MINERIA", "DIRECCION": null }, "geometry": { "type": "Point", "coordinates": [ -56.20122817337969, -34.906614151803574 ] } },
{ "type": "Feature", "properties": { "NOMBRE": "BIBLIOTECA DIRECCION NACIONAL DE METEOROLOGIA", "DIRECCION": null }, "geometry": { "type": "Point", "coordinates": [ -56.18554492691937, -34.902895295658723 ] } },
{ "type": "Feature", "properties": { "NOMBRE": "BIBLIOTECA DIRECCION NACIONAL DE MINERIA Y GEOLOGIA - MINISTERIO DE INDUSTRIA, ENERGIA Y MINERIA", "DIRECCION": null }, "geometry": { "type": "Point", "coordinates": [ -56.201143224379251, -34.877060637505004 ] } },
{ "type": "Feature", "properties": { "NOMBRE": "BIBLIOTECA DIRECCION NACIONAL DE RECURSOS ACUATICOS - MGAP", "DIRECCION": null }, "geometry": { "type": "Point", "coordinates": [ -56.183346948258382, -34.905615578781457 ] } },
{ "type": "Feature", "properties": { "NOMBRE": "BIBLIOTECA DIRECCION NACIONAL DE MEDIO AMBIENTE - MVOTMA", "DIRECCION": null }, "geometry": { "type": "Point", "coordinates": [ -56.206825811994023, -34.907188017430776 ] } },
{ "type": "Feature", "properties": { "NOMBRE": "BIBLIOTECA DIRECCION NACIONAL DE TECNOLOGIA NUCLEAR - MINISTERIO DE INDUSTRIA, ENERGIA Y MINERIA", "DIRECCION": null }, "geometry": { "type": "Point", "coordinates": [ -56.194089298177133, -34.904136085807636 ] } },
{ "type": "Feature", "properties": { "NOMBRE": "BIBLIOTECA DR ALEJANDRO SARACHAGA - SINDICATO MEDICO DEL URUGUAY", "DIRECCION": null }, "geometry": { "type": "Point", "coordinates": [ -56.164673845452469, -34.899467886210616 ] } },
{ "type": "Feature", "properties": { "NOMBRE": "BIBLIOTECA DR LUIS MORQUIO - SOCIEDAD URUGUAYA DE PEDIATRIA", "DIRECCION": null }, "geometry": { "type": "Point", "coordinates": [ -56.163317915964178, -34.897683209679215 ] } },
{ "type": "Feature", "properties": { "NOMBRE": "BIBLIOTECA ESCUELA DE ARTES Y ARTESAN¡AS DR PEDRO FIGARI - ANEP", "DIRECCION": null }, "geometry": { "type": "Point", "coordinates": [ -56.181107209883379, -34.909806023091356 ] } },
{ "type": "Feature", "properties": { "NOMBRE": "BIBLIOTECA ESCUELA DE COMANDO Y ESTADO MAYOR AEREO - FUERZA AEREA", "DIRECCION": null }, "geometry": { "type": "Point", "coordinates": [ -56.162303234579419, -34.80782145651618 ] } },
{ "type": "Feature", "properties": { "NOMBRE": "BIBLIOTECA ESCUELA DE GUERRA NAVAL - ARMADA NACIONAL", "DIRECCION": null }, "geometry": { "type": "Point", "coordinates": [ -56.040519563805091, -34.884138385771479 ] } },
{ "type": "Feature", "properties": { "NOMBRE": "BIBLIOTECA ESCUELA DE INDUSTRIAS GRAFICAS - ANEP", "DIRECCION": null }, "geometry": { "type": "Point", "coordinates": [ -56.181624517985, -34.909840497440463 ] } },
{ "type": "Feature", "properties": { "NOMBRE": "BIBLIOTECA ESCUELA DE METEOROLOGIA", "DIRECCION": null }, "geometry": { "type": "Point", "coordinates": [ -56.185383495315051, -34.903018135243329 ] } },
{ "type": "Feature", "properties": { "NOMBRE": "BIBLIOTECA ESCUELA DE NUTRICION Y DIETETICA - FACULTAD DE MEDICINA - UDELAR", "DIRECCION": null }, "geometry": { "type": "Point", "coordinates": [ -56.153150442358822, -34.891305088616448 ] } },
{ "type": "Feature", "properties": { "NOMBRE": "BIBLIOTECA ESCUELA DE SANIDAD - MINISTERIO DE DEFENSA NACIONAL", "DIRECCION": null }, "geometry": { "type": "Point", "coordinates": [ -56.15472994938299, -34.88348600416559 ] } },
{ "type": "Feature", "properties": { "NOMBRE": "BIBLIOTECA ESCUELA DE SANIDAD DR JOSE SCOSER¡A - MSP", "DIRECCION": null }, "geometry": { "type": "Point", "coordinates": [ -56.212088810263218, -34.909932945791716 ] } },
{ "type": "Feature", "properties": { "NOMBRE": "BIBLIOTECA ESCUELA HORIZONTE", "DIRECCION": null }, "geometry": { "type": "Point", "coordinates": [ -56.208079998073615, -34.866619093832291 ] } },
{ "type": "Feature", "properties": { "NOMBRE": "BIBLIOTECA ESCUELA TECNICA DEL BUCEO - ANEP", "DIRECCION": null }, "geometry": { "type": "Point", "coordinates": [ -56.143969700253969, -34.902730598087111 ] } },
{ "type": "Feature", "properties": { "NOMBRE": "BIBLIOTECA ESCUELA UNIVERSITARIA DE MUSICA", "DIRECCION": null }, "geometry": { "type": "Point", "coordinates": [ -56.198801164502669, -34.902555001593576 ] } },
{ "type": "Feature", "properties": { "NOMBRE": "BIBLIOTECA ESCUELA UNIVERSITARIA DE BILIOTECOLOGIA Y CIENCIAS AFINES ING FEDERICO E CAPURRO", "DIRECCION": null }, "geometry": { "type": "Point", "coordinates": [ -56.176478931176703, -34.903721396428836 ] } },
{ "type": "Feature", "properties": { "NOMBRE": "BIBLIOTECA FACULTAD DE ADMINISTRACION Y CIENCIAS SOCIALES - UNIVERSIDAD ORT", "DIRECCION": null }, "geometry": { "type": "Point", "coordinates": [ -56.156750192827062, -34.912972685312141 ] } },
{ "type": "Feature", "properties": { "NOMBRE": "BIBLIOTECA FACULTAD DE AGRONOMIA - UDELAR", "DIRECCION": null }, "geometry": { "type": "Point", "coordinates": [ -56.221369833395798, -34.83560683508491 ] } },
{ "type": "Feature", "properties": { "NOMBRE": "BIBLIOTECA FACULTAD DE ARQUITECTURA - UDELAR", "DIRECCION": null }, "geometry": { "type": "Point", "coordinates": [ -56.163496415700557, -34.910176601070901 ] } },
{ "type": "Feature", "properties": { "NOMBRE": "BIBLIOTECA FACULTAD DE ARQUITECTURA - UNIVERSIDAD ORT", "DIRECCION": null }, "geometry": { "type": "Point", "coordinates": [ -56.157072668770049, -34.913054532542766 ] } },
{ "type": "Feature", "properties": { "NOMBRE": "BIBLIOTECA FACULTAD DE CIENCIAS - UDELAR", "DIRECCION": null }, "geometry": { "type": "Point", "coordinates": [ -56.117907279031748, -34.882824919659768 ] } },
{ "type": "Feature", "properties": { "NOMBRE": "BIBLIOTECA FACULTAD DE CIENCIAS ECONOMICAS Y DE ADMINISTRACION - UDELAR", "DIRECCION": null }, "geometry": { "type": "Point", "coordinates": [ -56.173247103815811, -34.911964036167362 ] } },
{ "type": "Feature", "properties": { "NOMBRE": "BIBLIOTECA FACULTAD DE CIENCIAS SOCIALES - UDELAR", "DIRECCION": null }, "geometry": { "type": "Point", "coordinates": [ -56.183036797442142, -34.905880445687536 ] } },
{ "type": "Feature", "properties": { "NOMBRE": "BIBLIOTECA FACULTAD DE COMUNICACION Y DISEÑO - UNIVERSIDAD ORT", "DIRECCION": null }, "geometry": { "type": "Point", "coordinates": [ -56.190808587012, -34.904019993110808 ] } },
{ "type": "Feature", "properties": { "NOMBRE": "BIBLIOTECA FACULTAD DE DERECHO - UDELAR", "DIRECCION": null }, "geometry": { "type": "Point", "coordinates": [ -56.176711504089695, -34.902294868912541 ] } },
{ "type": "Feature", "properties": { "NOMBRE": "BIBLIOTECA FACULTAD DE HUMANIDADES Y CIENCIAS DE LA EDUCACION - UDELAR", "DIRECCION": null }, "geometry": { "type": "Point", "coordinates": [ -56.181254062037162, -34.9005728500427 ] } },
{ "type": "Feature", "properties": { "NOMBRE": "BIBLIOTECA FACULTAD DE INGENIERIA - UDELAR", "DIRECCION": null }, "geometry": { "type": "Point", "coordinates": [ -56.166631043026044, -34.917390427375139 ] } },
{ "type": "Feature", "properties": { "NOMBRE": "BIBLIOTECA FACULTAD DE INGENIER¡A BERNARD WAND-POLAK - UNIVERSIDAD ORT", "DIRECCION": null }, "geometry": { "type": "Point", "coordinates": [ -56.157072668770049, -34.913054532542766 ] } },
{ "type": "Feature", "properties": { "NOMBRE": "BIBLIOTECA FACULTAD DE ODONTOLOGIA - UDELAR", "DIRECCION": null }, "geometry": { "type": "Point", "coordinates": [ -56.14979450864891, -34.891998615966067 ] } },
{ "type": "Feature", "properties": { "NOMBRE": "BIBLIOTECA FACULTAD DE PSICOLOGIA - UDELAR", "DIRECCION": null }, "geometry": { "type": "Point", "coordinates": [ -56.178906832765833, -34.899568324877102 ] } },
{ "type": "Feature", "properties": { "NOMBRE": "BIBLIOTECA FACULTAD DE VETERINARIA - UDELAR", "DIRECCION": null }, "geometry": { "type": "Point", "coordinates": [ -56.140779190825882, -34.897843883542372 ] } },
{ "type": "Feature", "properties": { "NOMBRE": "BIBLIOTECA FONDO DE CULTURA EMPRESARIAL - INSTITUTO DE DESARROLLO EMPRESARIAL ADMINISTRATIVO SUPERIOR", "DIRECCION": null }, "geometry": { "type": "Point", "coordinates": [ -56.192001799035523, -34.906217031137771 ] } },
{ "type": "Feature", "properties": { "NOMBRE": "BIBLIOTECA FRIEDRICH EBERT STITFURNG", "DIRECCION": null }, "geometry": { "type": "Point", "coordinates": [ -56.19172001726195, -34.905345964889648 ] } },
{ "type": "Feature", "properties": { "NOMBRE": "BIBLIOTECA FUNDACION PARA LA MUJER Y LA FAMILIA RURAL - FUNDACION MUJER Y FAMILIA RURAL", "DIRECCION": null }, "geometry": { "type": "Point", "coordinates": [ -56.197927270643142, -34.87664161559983 ] } },
{ "type": "Feature", "properties": { "NOMBRE": "BIBLIOTECA GRUPO APORTES A LA ORGANIZACION POPULAR - EMAUS", "DIRECCION": null }, "geometry": { "type": "Point", "coordinates": [ -56.167769362196687, -34.905231613692997 ] } },
{ "type": "Feature", "properties": { "NOMBRE": "BIBLIOTECA HOSPITAL BRITANICO", "DIRECCION": null }, "geometry": { "type": "Point", "coordinates": [ -56.163074259629106, -34.894927400326232 ] } },
{ "type": "Feature", "properties": { "NOMBRE": "BIBLIOTECA HOSPITAL EVANGELICO", "DIRECCION": null }, "geometry": { "type": "Point", "coordinates": [ -56.146376771627672, -34.880632051692942 ] } },
{ "type": "Feature", "properties": { "NOMBRE": "BIBLIOTECA HOSPITAL MACIEL", "DIRECCION": null }, "geometry": { "type": "Point", "coordinates": [ -56.212033255431912, -34.908002411410109 ] } },
{ "type": "Feature", "properties": { "NOMBRE": "BIBLIOTECA INAME - DIVISION EDUCACION", "DIRECCION": null }, "geometry": { "type": "Point", "coordinates": [ -56.188618909054739, -34.90059524002281 ] } },
{ "type": "Feature", "properties": { "NOMBRE": "BIBLIOTECA INSTITUTO DE ADIESTRAMIENTO AERONAUTICO - MINISTERIO DE DEFENSA", "DIRECCION": null }, "geometry": { "type": "Point", "coordinates": [ -56.259926542882901, -34.78772379244031 ] } },
{ "type": "Feature", "properties": { "NOMBRE": "BIBLIOTECA INSTITUTO DE COMPUTACION - FACULTAD DE INGENIERIA - UDELAR", "DIRECCION": null }, "geometry": { "type": "Point", "coordinates": [ -56.166491423961261, -34.917933474688112 ] } },
{ "type": "Feature", "properties": { "NOMBRE": "BIBLIOTECA INSTITUTO DE COMUNICACION Y DESARROLLO", "DIRECCION": null }, "geometry": { "type": "Point", "coordinates": [ -56.185459167158882, -34.905361092193438 ] } },
{ "type": "Feature", "properties": { "NOMBRE": "BIBLIOTECA INSTITUTO DE CULTURA URUGUAYO-BRASILERO - EMBAJADA DE BRASIL", "DIRECCION": null }, "geometry": { "type": "Point", "coordinates": [ -56.195067057113882, -34.906288113206053 ] } },
{ "type": "Feature", "properties": { "NOMBRE": "BIBLIOTECA INSTITUTO DE ECONOMIA - FACULTAD DE CIENCIAS ECONOMICAS Y DE ADMINISTRACION - UDELAR", "DIRECCION": null }, "geometry": { "type": "Point", "coordinates": [ -56.16397927389859, -34.905836594123663 ] } },
{ "type": "Feature", "properties": { "NOMBRE": "BIBLIOTECA INSTITUTO DE EDUCACION - UNIVERSIDAD ORT", "DIRECCION": null }, "geometry": { "type": "Point", "coordinates": [ -56.157072668770049, -34.913054532542766 ] } },
{ "type": "Feature", "properties": { "NOMBRE": "BIBLIOTECA INSTITUTO DE FISICA - FACULTAD DE CIENCIAS - UDELAR", "DIRECCION": null }, "geometry": { "type": "Point", "coordinates": [ -56.118734683224623, -34.88162552523481 ] } },
{ "type": "Feature", "properties": { "NOMBRE": "BIBLIOTECA INSTITUTO DE HIGIENE PROF ARNOLDO BERTA - FACULTAD DE MEDICINA - UDELAR", "DIRECCION": null }, "geometry": { "type": "Point", "coordinates": [ -56.150688383413978, -34.894087588050915 ] } },
{ "type": "Feature", "properties": { "NOMBRE": "BIBLIOTECA INSTITUTO DE INVESTIGACIONES PESQUERAS - FACULTAD DE VETERINARIA - UDELAR", "DIRECCION": null }, "geometry": { "type": "Point", "coordinates": [ -56.124865683465842, -34.904330759785132 ] } },
{ "type": "Feature", "properties": { "NOMBRE": "BIBLIOTECA INSTITUTO DE MATEMATICA Y ESTADISTICA ING RAFAEL LAGUARDIA - FACULTAD DE INGENIERIA - UDELAR", "DIRECCION": null }, "geometry": { "type": "Point", "coordinates": [ -56.166491423961261, -34.917933474688112 ] } },
{ "type": "Feature", "properties": { "NOMBRE": "BIBLIOTECA INSTITUTO M‚DICO DE PREVISION, ASISTENCIA Y SERVICIOS AFINES", "DIRECCION": null }, "geometry": { "type": "Point", "coordinates": [ -56.150347773817728, -34.885202428845034 ] } },
{ "type": "Feature", "properties": { "NOMBRE": "BIBLIOTECA INSTITUTO MILITAR DE ESTUDIOS SUPERIORES - MINISTERIO DE DEFENSA NACIONAL", "DIRECCION": null }, "geometry": { "type": "Point", "coordinates": [ -56.167058557865886, -34.881056260040054 ] } },
{ "type": "Feature", "properties": { "NOMBRE": "BIBLIOTECA INSTITUTO NACIONAL DE ENFERMERIA - UDELAR", "DIRECCION": null }, "geometry": { "type": "Point", "coordinates": [ -56.153150442358822, -34.891305088616448 ] } },
{ "type": "Feature", "properties": { "NOMBRE": "BIBLIOTECA INSTITUTO NACIONAL DE ESTADISTICA - OPP", "DIRECCION": null }, "geometry": { "type": "Point", "coordinates": [ -56.193865287243824, -34.902841519883737 ] } },
{ "type": "Feature", "properties": { "NOMBRE": "BIBLIOTECA INSTITUTO NACIONAL DE ESTUDIOS SOCIALES", "DIRECCION": null }, "geometry": { "type": "Point", "coordinates": [ -56.176477279608079, -34.904404992442018 ] } },
{ "type": "Feature", "properties": { "NOMBRE": "BIBLIOTECA INSTITUTOS NORMALES LEONOR HORTICOU - ANEP", "DIRECCION": null }, "geometry": { "type": "Point", "coordinates": [ -56.180320237748958, -34.907073363130344 ] } },
{ "type": "Feature", "properties": { "NOMBRE": "BIBLIOTECA INSTITUTO SUPERIOR DE EDUCACION FISICA - MINISTERIO DE DEPORTE Y JUVENTUD", "DIRECCION": null }, "geometry": { "type": "Point", "coordinates": [ -56.155202381212717, -34.895860883731217 ] } },
{ "type": "Feature", "properties": { "NOMBRE": "BIBLIOTECA INSTITUTO SUPERIOR DE LA CONSTRUCCION - ANEP", "DIRECCION": null }, "geometry": { "type": "Point", "coordinates": [ -56.175203423537177, -34.899262807318976 ] } },
{ "type": "Feature", "properties": { "NOMBRE": "BIBLIOTECA INSTITUTO TECNOLOGICO SUPERIOR", "DIRECCION": null }, "geometry": { "type": "Point", "coordinates": [ -56.169930281149391, -34.863110944553661 ] } },
{ "type": "Feature", "properties": { "NOMBRE": "BIBLIOTECA JOSE ARTIGAS - JUNTA DEPARTAMENTAL DE MONTEVIDEO", "DIRECCION": null }, "geometry": { "type": "Point", "coordinates": [ -56.203521534994593, -34.905097694366923 ] } },
{ "type": "Feature", "properties": { "NOMBRE": "BIBLIOTECA JOSE BATLLE Y ORDOÑEZ - MINISTERIO DE EDUCACION Y CULTURA", "DIRECCION": null }, "geometry": { "type": "Point", "coordinates": [ -56.140299501656024, -34.823524247557394 ] } },
{ "type": "Feature", "properties": { "NOMBRE": "BIBLIOTECA ACADEMIA NACIONAL DE LETRAS - MINISTERIO DE EDUCACION Y CULTURA", "DIRECCION": null }, "geometry": { "type": "Point", "coordinates": [ -56.203172787993623, -34.908810784967933 ] } },
{ "type": "Feature", "properties": { "NOMBRE": "BIBLIOTECA ACADEMIA NACIONAL DE MEDICINA - MINISTERIO DE EDUCACION Y CULTURA", "DIRECCION": null }, "geometry": { "type": "Point", "coordinates": [ -56.168308989675033, -34.89878613164057 ] } },
{ "type": "Feature", "properties": { "NOMBRE": "BIBLIOTECA ADMINISTRACION NACIONAL DE COMBUSTIBLES, ALCOHOL Y PORTLAND", "DIRECCION": null }, "geometry": { "type": "Point", "coordinates": [ -56.192579722803345, -34.90227663550003 ] } },
{ "type": "Feature", "properties": { "NOMBRE": "BIBLIOTECA ADMINISTRACION NACIONAL DE TELECOMUNICACIONES", "DIRECCION": null }, "geometry": { "type": "Point", "coordinates": [ -56.194074033597801, -34.891901705130699 ] } },
{ "type": "Feature", "properties": { "NOMBRE": "BIBLIOTECA ADMINISTRACION NACIONAL DE USINAS Y TRANSMISIONES ELECTRICAS", "DIRECCION": null }, "geometry": { "type": "Point", "coordinates": [ -56.194778287949326, -34.885462320272133 ] } },
{ "type": "Feature", "properties": { "NOMBRE": "BIBLIOTECA CENTRAL DE SERVICIOS MEDICOS - BANCO DE SEGUROS DEL ESTADO", "DIRECCION": null }, "geometry": { "type": "Point", "coordinates": [ -56.194573319743689, -34.90431554198819 ] } },
{ "type": "Feature", "properties": { "NOMBRE": "BIBLIOTECA CENTRO DE DISEÑO INDUSTRIAL - MINISTERIO DE EDUCACION Y CULTURA", "DIRECCION": null }, "geometry": { "type": "Point", "coordinates": [ -56.179669616366354, -34.894544473868713 ] } },
{ "type": "Feature", "properties": { "NOMBRE": "BIBLIOTECA CENTRO NACIONAL DE DOCUMENTACION CIENTIFICA, TECNICA Y ECONOMICA - MINISTERIO DE EDUCACION Y CULTURA", "DIRECCION": null }, "geometry": { "type": "Point", "coordinates": [ -56.177756639205626, -34.902822949933359 ] } },
{ "type": "Feature", "properties": { "NOMBRE": "BIBLIOTECA DEPARTAMENTO DE DOCUMENTACION PEDAGOGICA - MINISTERIO DE EDUCACION Y CULTURA", "DIRECCION": null }, "geometry": { "type": "Point", "coordinates": [ -56.203466739854392, -34.908970900880405 ] } },
{ "type": "Feature", "properties": { "NOMBRE": "BIBLIOTECA DIRECCION NACIONAL DE CIENCIA, TECNOLOGIA E INNOVACION - MINISTERIO DE EDUCACION Y CULTURA", "DIRECCION": null }, "geometry": { "type": "Point", "coordinates": [ -56.192643054299296, -34.903692908874156 ] } },
{ "type": "Feature", "properties": { "NOMBRE": "BIBLIOTECA JOSE ENRIQUE RODO - ASOCIACION CRISTIANA DE JOVENES", "DIRECCION": null }, "geometry": { "type": "Point", "coordinates": [ -56.17633245550924, -34.900956673278365 ] } },
{ "type": "Feature", "properties": { "NOMBRE": "BIBLIOTECA LABORATORIO TECNOLOGICO DEL URUGUAY", "DIRECCION": null }, "geometry": { "type": "Point", "coordinates": [ -56.074312182702457, -34.87951969640519 ] } },
{ "type": "Feature", "properties": { "NOMBRE": "BIBLIOTECA LICENCIATURA EN CIENCIAS DE LA EDUCACION - UDELAR", "DIRECCION": null }, "geometry": { "type": "Point", "coordinates": [ -56.135685586308014, -34.895026562130354 ] } },
{ "type": "Feature", "properties": { "NOMBRE": "BIBLIOTECA LUIS ALBERTO CANDEAU - SOCIEDAD URUGUAYA DE ACTORES", "DIRECCION": null }, "geometry": { "type": "Point", "coordinates": [ -56.196587769036903, -34.904297030856384 ] } },
{ "type": "Feature", "properties": { "NOMBRE": "BIBLIOTECA MUNICIPAL FELISBERTO HERNANDEZ", "DIRECCION": null }, "geometry": { "type": "Point", "coordinates": [ -56.118478195976529, -34.876190715096087 ] } },
{ "type": "Feature", "properties": { "NOMBRE": "BIBLIOTECA MUSEO AERONAUTICO - COMANDO GENERAL DE LA FUERZA AEREA", "DIRECCION": null }, "geometry": { "type": "Point", "coordinates": [ -56.154108988617061, -34.863936451928332 ] } },
{ "type": "Feature", "properties": { "NOMBRE": "BIBLIOTECA MUSEO DE HISTORIA DEL ARTE - IMM", "DIRECCION": null }, "geometry": { "type": "Point", "coordinates": [ -56.186729868047152, -34.905799631193766 ] } },
{ "type": "Feature", "properties": { "NOMBRE": "BIBLIOTECA MUSEO TORRES GARCIA", "DIRECCION": null }, "geometry": { "type": "Point", "coordinates": [ -56.201372763024423, -34.906474965766769 ] } },
{ "type": "Feature", "properties": { "NOMBRE": "BIBLIOTECA MUSEO NACIONAL DE ARTES PLASTICAS Y VISUALES", "DIRECCION": null }, "geometry": { "type": "Point", "coordinates": [ -56.164403759746421, -34.914468642629977 ] } },
{ "type": "Feature", "properties": { "NOMBRE": "BIBLIOTECA MUSEO HISTORICO NACIONAL", "DIRECCION": null }, "geometry": { "type": "Point", "coordinates": [ -56.206607409224198, -34.907018985494609 ] } },
{ "type": "Feature", "properties": { "NOMBRE": "BIBLIOTECA MUSEO ZOOLOGICO DAMASO ANTONIO LARRAÑAGA", "DIRECCION": null }, "geometry": { "type": "Point", "coordinates": [ -56.123697390435304, -34.903274608454566 ] } },
{ "type": "Feature", "properties": { "NOMBRE": "BIBLIOTECA NACIONAL DE MEDICINA - FACULTAD DE MEDICINA - UDELAR", "DIRECCION": null }, "geometry": { "type": "Point", "coordinates": [ -56.186057192892569, -34.888291900856053 ] } },
{ "type": "Feature", "properties": { "NOMBRE": "BIBLIOTECA OFICINA DE PLANEAMIENTO Y PRESUPUESTO", "DIRECCION": null }, "geometry": { "type": "Point", "coordinates": [ -56.166675171481835, -34.869699764544457 ] } },
{ "type": "Feature", "properties": { "NOMBRE": "BIBLIOTECA MUNICIPAL JOSE HENRIQUEZ FIGUEIRA", "DIRECCION": null }, "geometry": { "type": "Point", "coordinates": [ -56.201592110442093, -34.909894231484195 ] } },
{ "type": "Feature", "properties": { "NOMBRE": "BIBLIOTECA MUNICIPAL MARIA STAGNERO DE MUNAR", "DIRECCION": null }, "geometry": { "type": "Point", "coordinates": [ -56.165780867394936, -34.919048563673321 ] } },
{ "type": "Feature", "properties": { "NOMBRE": "BIBLIOTECA ORGANIZACION PANAMERICANA DE LA SALUD", "DIRECCION": null }, "geometry": { "type": "Point", "coordinates": [ -56.15591278175318, -34.908250990837935 ] } },
{ "type": "Feature", "properties": { "NOMBRE": "BIBLIOTECA PEDAGOGICA CENTRAL - ANEP", "DIRECCION": null }, "geometry": { "type": "Point", "coordinates": [ -56.190861305738594, -34.905277085103535 ] } },
{ "type": "Feature", "properties": { "NOMBRE": "BIBLIOTECA PLANETARIO MUNICIPAL AGRIM GERMAN BARBATO", "DIRECCION": null }, "geometry": { "type": "Point", "coordinates": [ -56.144413505594024, -34.901645816594261 ] } },
{ "type": "Feature", "properties": { "NOMBRE": "BIBLIOTECA PROF ESC JULIO R BARDALLO - ASOCIACION DE ESCRIBANOS DEL URUGUAY", "DIRECCION": null }, "geometry": { "type": "Point", "coordinates": [ -56.178488958838486, -34.903821655979094 ] } },
{ "type": "Feature", "properties": { "NOMBRE": "BIBLIOTECA PROGRAMA INTERAMERICANO DE INFORMACION SOBRE NIÑEZ Y FAMILIA - INSTITUTO INTERAMERICANO DEL NIÑO", "DIRECCION": null }, "geometry": { "type": "Point", "coordinates": [ -56.15685362154256, -34.88562236124158 ] } },
{ "type": "Feature", "properties": { "NOMBRE": "BIBLIOTECA REPRESENTACION DE FAO EN URUGUAY", "DIRECCION": null }, "geometry": { "type": "Point", "coordinates": [ -56.194530027528579, -34.907283007613373 ] } },
{ "type": "Feature", "properties": { "NOMBRE": "BIBLIOTECA REUNIONES DE MINISTROS DE TRANSPORTE Y OBRAS PUBLICAS DEL CONO SUR", "DIRECCION": null }, "geometry": { "type": "Point", "coordinates": [ -56.203789508851209, -34.906174056291896 ] } },
{ "type": "Feature", "properties": { "NOMBRE": "BIBLIOTECA SECRETARIA ADMINISTRATIVA DEL MERCOSUR", "DIRECCION": null }, "geometry": { "type": "Point", "coordinates": [ -56.171726284523324, -34.91342158877405 ] } },
{ "type": "Feature", "properties": { "NOMBRE": "BIBLIOTECA SECRETARIADO URUGUAYO DE LA LANA", "DIRECCION": null }, "geometry": { "type": "Point", "coordinates": [ -56.209110106831531, -34.875430641478346 ] } },
{ "type": "Feature", "properties": { "NOMBRE": "BIBLIOTECA SERVICIO CENTRAL DE INFORMATICA UNIVERSITARIA - UDELAR", "DIRECCION": null }, "geometry": { "type": "Point", "coordinates": [ -56.17122740412605, -34.898937060857996 ] } },
{ "type": "Feature", "properties": { "NOMBRE": "BIBLIOTECA SERVICIO DE CATALOGO COLECTIVO DE PUBLICACIONES SERIADAS DE LA UNIVERSIDAD DE LA REPUBLICA", "DIRECCION": null }, "geometry": { "type": "Point", "coordinates": [ -56.173424825979247, -34.901033288077933 ] } },
{ "type": "Feature", "properties": { "NOMBRE": "BIBLIOTECA SERVICIO DE INFORMACION PARA EMPRESARIOS - CAMARA DE INDUSTRIAS DEL URUGUAY", "DIRECCION": null }, "geometry": { "type": "Point", "coordinates": [ -56.077846345202971, -34.881512543947338 ] } },
{ "type": "Feature", "properties": { "NOMBRE": "BIBLIOTECA SERVICIO GEOGRAFICO MILITAR", "DIRECCION": null }, "geometry": { "type": "Point", "coordinates": [ -56.150357394880693, -34.880612796779509 ] } },
{ "type": "Feature", "properties": { "NOMBRE": "BIBLIOTECA SERVICIO PAZ Y JUSTICIA", "DIRECCION": null }, "geometry": { "type": "Point", "coordinates": [ -56.170173561536437, -34.898708155566098 ] } },
{ "type": "Feature", "properties": { "NOMBRE": "BIBLIOTECA SISTEMA NACIONAL DE INFORMACION CULTURAL, CIENTIFICA Y TECNOLOGICA - MINISTERIO DE EDUCACION Y CULTURA", "DIRECCION": null }, "geometry": { "type": "Point", "coordinates": [ -56.205220503369311, -34.905784547167606 ] } },
{ "type": "Feature", "properties": { "NOMBRE": "BIBLIOTECA SOCIEDAD APICOLA URUGUAYA", "DIRECCION": null }, "geometry": { "type": "Point", "coordinates": [ -56.2035122070209, -34.863528645707149 ] } },
{ "type": "Feature", "properties": { "NOMBRE": "BIBLIOTECA SOCIEDAD DE ANESTESIOLOGIA DEL URUGUAY", "DIRECCION": null }, "geometry": { "type": "Point", "coordinates": [ -56.139943861428975, -34.899456323193348 ] } },
{ "type": "Feature", "properties": { "NOMBRE": "BIBLIOTECA SOCIEDAD DE ARQUITECTOS DEL URUGUAY", "DIRECCION": null }, "geometry": { "type": "Point", "coordinates": [ -56.170875514490099, -34.911779818439982 ] } },
{ "type": "Feature", "properties": { "NOMBRE": "BIBLIOTECA SOCIEDAD DE CIRUGIA DEL URUGUAY", "DIRECCION": null }, "geometry": { "type": "Point", "coordinates": [ -56.165328431252782, -34.906930112141247 ] } },
{ "type": "Feature", "properties": { "NOMBRE": "BIBLIOTECA SOCIEDAD DE ORTOPEDIA Y TRAUMATOLOGIA DEL URUGUAY", "DIRECCION": null }, "geometry": { "type": "Point", "coordinates": [ -56.150619844227919, -34.890356014541027 ] } },
{ "type": "Feature", "properties": { "NOMBRE": "BIBLIOTECA SOCIEDAD DE RADIOLOGIA E IMAGENOLOGIA DEL URUGUAY", "DIRECCION": null }, "geometry": { "type": "Point", "coordinates": [ -56.153150442358822, -34.891305088616448 ] } },
{ "type": "Feature", "properties": { "NOMBRE": "BIBLIOTECA SUEÑA LIBROS", "DIRECCION": null }, "geometry": { "type": "Point", "coordinates": [ -56.098504421393024, -34.880927973122994 ] } },
{ "type": "Feature", "properties": { "NOMBRE": "BIBLIOTECA UNIDAD DE INFORMACION COMERCIAL, PRODUCCION Y COMERCIALIZACION - COMISION ADMINISTRADORA DEL MERCADO MODELO", "DIRECCION": null }, "geometry": { "type": "Point", "coordinates": [ -56.154769931686204, -34.87170496429755 ] } },
{ "type": "Feature", "properties": { "NOMBRE": "BIBLIOTECA UNIDAD DE INFORMACION DEL RECTORADO - UDELAR", "DIRECCION": null }, "geometry": { "type": "Point", "coordinates": [ -56.176474242274381, -34.902258585846496 ] } },
{ "type": "Feature", "properties": { "NOMBRE": "BIBLIOTECA UNION DE EXPORTADORES DEL URUGUAY", "DIRECCION": null }, "geometry": { "type": "Point", "coordinates": [ -56.206059407796282, -34.906957233758881 ] } },
{ "type": "Feature", "properties": { "NOMBRE": "BIBLIOTECA UNIDAD MULTIDISCIPLINARIA - FACULTAD DE CIENCIAS SOCIALES - UDELAR", "DIRECCION": null }, "geometry": { "type": "Point", "coordinates": [ -56.180933612733376, -34.90318306507794 ] } },
{ "type": "Feature", "properties": { "NOMBRE": "BIBLIOTECA UNION POSTAL DE LAS AMERICAS, ESPAÑA Y PORTUGAL", "DIRECCION": null }, "geometry": { "type": "Point", "coordinates": [ -56.182479737190214, -34.913543067391842 ] } },
{ "type": "Feature", "properties": { "NOMBRE": "BIBLIOTECA UNIVERSIDAD CATOLICA DEL URUGUAY DAMASO ANTONIO LARRAÑAGA", "DIRECCION": null }, "geometry": { "type": "Point", "coordinates": [ -56.159313718686427, -34.888570242743072 ] } },
{ "type": "Feature", "properties": { "NOMBRE": "MUSEO DEL ARMA DE INGENIEROS - ADUANA DE ORIBE", "DIRECCION": null }, "geometry": { "type": "Point", "coordinates": [ -56.129809283478465, -34.904215307468945 ] } },
{ "type": "Feature", "properties": { "NOMBRE": "MUSEO CENTRO MUNICIPAL DE EXPOSICIONES - SUBTE", "DIRECCION": null }, "geometry": { "type": "Point", "coordinates": [ -56.194860588228487, -34.905893648753327 ] } },
{ "type": "Feature", "properties": { "NOMBRE": "CINE HOYTS ALFABETA", "DIRECCION": "MIGUEL BARREIRO 3231" }, "geometry": { "type": "Point", "coordinates": [ -56.146687033204032, -34.909007627379353 ] } },
{ "type": "Feature", "properties": { "NOMBRE": "CINE HOYTS PUNTA CARRETAS", "DIRECCION": "JOSE ELLAURI 350" }, "geometry": { "type": "Point", "coordinates": [ -56.158307193151792, -34.923341675625856 ] } },
{ "type": "Feature", "properties": { "NOMBRE": "CINE OPERA", "DIRECCION": "AV 18 DE JULIO 1710" }, "geometry": { "type": "Point", "coordinates": [ -56.17926668159803, -34.903320993332223 ] } },
{ "type": "Feature", "properties": { "NOMBRE": "AUDITORIO NELLY GOITIÑO - SODRE", "DIRECCION": "AV 18 DE JULIO 930" }, "geometry": { "type": "Point", "coordinates": [ -56.196303674177578, -34.906382877147671 ] } },
{ "type": "Feature", "properties": { "NOMBRE": "AUDITORIO NACIONAL ADELA RETA - SODRE", "DIRECCION": null }, "geometry": { "type": "Point", "coordinates": [ -56.198544031389105, -34.904368328818421 ] } },
{ "type": "Feature", "properties": { "NOMBRE": "ANTEL ARENA" }, "geometry": { "type": "Point", "coordinates": [ -56.154013299074975, -34.864666822919418 ] } }
