{"id":3439539,"name":"Punta Yeguas","name_accents":"Punta Yeguas","name_aliases":"Punta Yeguas,Punta de Yeguas,Punta de las Yeguas","lat":-34.90361,"lon":-56.3125}
{"id":3439542,"name":"Ca\u00f1ada de los Yegros","name_accents":"Canada de los Yegros","name_aliases":"Canada de las Yeguas,Canada de los Yegros,Ca\u00f1ada de las Yeguas,Ca\u00f1ada de los Yegros","lat":-34.9,"lon":-56.3}
{"id":3439593,"name":"Villa Mu\u00f1oz","name_accents":"Villa Munoz","name_aliases":"Villa Munoz,Villa Mu\u00f1oz","lat":-34.88333,"lon":-56.18333}
{"id":3439594,"name":"Villa Espa\u00f1ola","name_accents":"Villa Espanola","name_aliases":"Villa Espanola,Villa Espa\u00f1ola","lat":-34.88333,"lon":-56.15}
{"id":3439596,"name":"Villa Dolores","name_accents":"Villa Dolores","name_aliases":"Villa Dolores","lat":-34.9,"lon":-56.15}
{"id":3439597,"name":"Villa del Cerro","name_accents":"Villa del Cerro","name_aliases":"Vilja del Seras,Villa del Cerro","lat":-34.89441,"lon":-56.25292}
{"id":3439608,"name":"Victoria","name_accents":"Victoria","name_aliases":"Pueblo Victoria,Victoria","lat":-34.85945,"lon":-56.2391}
{"id":3439628,"name":"Playa Verde","name_accents":"Playa Verde","name_aliases":"Playa La Verde","lat":-34.89792,"lon":-56.07342}
{"id":3439708,"name":"Uni\u00f3n","name_accents":"Union","name_aliases":"Union,Uni\u00f3n","lat":-34.87056,"lon":-56.13361}
{"id":3439739,"name":"Punta Trouville","name_accents":"Punta Trouville","name_aliases":"Punta Pocitos","lat":-34.91968,"lon":-56.14619}
{"id":3439811,"name":"Arroyo de la Tortuga","name_accents":"Arroyo de la Tortuga","name_aliases":"Arroyo de la Tortuga,Arroyo de las Tortugas,Ojos de Agua","lat":-34.71667,"lon":-56.36667}
{"id":3439834,"name":"Punta Tomador","name_accents":"Punta Tomador","name_aliases":"Punta Tomador,Punta del Tomador","lat":-34.89026,"lon":-56.33102}
{"id":3439835,"name":"Estaci\u00f3n Toledo","name_accents":"Estacion Toledo","name_aliases":"Estacion Toledo,Estaci\u00f3n Toledo,Suarez,Su\u00e1rez,Toledo","lat":-34.74794,"lon":-56.08899}
{"id":3439837,"name":"Arroyo de Toledo","name_accents":"Arroyo de Toledo","name_aliases":"Arroyo de Toledo,Arroyo de Toledo de Carrasco,Toledo,Toledo Arroyo","lat":-34.81194,"lon":-56.05333}
{"id":3439838,"name":"Toledo","name_accents":"Toledo","name_aliases":"Toledo","lat":-34.73807,"lon":-56.09469}
{"id":3439852,"name":"Punta del Tigre","name_accents":"Punta del Tigre","name_aliases":"Punta Tigre,Punta del Tigre","lat":-34.89874,"lon":-56.28708}
{"id":3439854,"name":"Puerto del Tigre","name_accents":"Puerto del Tigre","name_aliases":"Puerto del Tigre","lat":-34.8,"lon":-56.38333}
{"id":3439855,"name":"Isla del Tigre","name_accents":"Isla del Tigre","name_aliases":"Isla del Tigre","lat":-34.78916,"lon":-56.38706}
{"id":3440024,"name":"Roca Tagus","name_accents":"Roca Tagus","name_aliases":"Roca Tagus","lat":-34.91667,"lon":-56.25}
{"id":3440088,"name":"Punta Shannon","name_accents":"Punta Shannon","name_aliases":"Punta Shannon","lat":-34.92472,"lon":-56.17224}
{"id":3440100,"name":"Punta Sayago","name_accents":"Punta Sayago","name_aliases":"Punta Caballo,Punta Sayago,Punta de Sayago","lat":-34.89994,"lon":-56.27618}
{"id":3440101,"name":"Estaci\u00f3n Sayago","name_accents":"Estacion Sayago","name_aliases":"Estacion Sayago,Estaci\u00f3n Sayago,Sayago","lat":-34.83333,"lon":-56.21667}
{"id":3440102,"name":"Sayago","name_accents":"Sayago","name_aliases":"Savago,Sayago","lat":-34.83333,"lon":-56.23333}
{"id":3440432,"name":"Punta Sarand\u00ed","name_accents":"Punta Sarandi","name_aliases":"Punta Sarand\u00ed","lat":-34.90964,"lon":-56.21425}
{"id":3440541,"name":"Santiago V\u00e1zquez","name_accents":"Santiago Vazquez","name_aliases":"Santiago,Santiago Vazquez,Santiago V\u00e1zquez","lat":-34.79028,"lon":-56.35}
{"id":3440544,"name":"Punta Santa Teresa","name_accents":"Punta Santa Teresa","name_aliases":"Punta Santa Teresa,Punta de la Caleta","lat":-34.91187,"lon":-56.21041}
{"id":3440564,"name":"R\u00edo Santa Luc\u00eda","name_accents":"Rio Santa Lucia","name_aliases":"Rio Santa Lucia,Rio Santa Lucia del Plata,Rio Santa Luc\u00eda,Rio de Santa Lucia,Riu Santa Lucia,Riu Santa Luc\u00eda,R\u00edo Santa Luc\u00eda,R\u00edo Santa Luc\u00eda del Plata,R\u00edo de Santa Luc\u00eda,Santa Lucia,Santa Lucia River,Santa Luc\u00eda,Santa Luc\u00eda River,Santa Lusija,Santa-Lusija,\u0421\u0430\u043d\u0442\u0430-\u041b\u0443\u0441\u0438\u044f","lat":-34.78611,"lon":-56.35833}
{"id":3440629,"name":"Punta San Juan","name_accents":"Punta San Juan","name_aliases":"Punta San Juan","lat":-34.8787,"lon":-56.33407}
{"id":3440643,"name":"Punta San Jos\u00e9","name_accents":"Punta San Jose","name_aliases":"Punta San Jos\u00e9","lat":-34.90631,"lon":-56.2153}
{"id":3440662,"name":"Arroyo San Gregorio","name_accents":"Arroyo San Gregorio","name_aliases":"Arroyo San Gregorio,Arroyo de San Gregorio","lat":-34.78333,"lon":-56.33333}
{"id":3440734,"name":"Roca Sabina","name_accents":"Roca Sabina","name_aliases":"Islote de la Sabina,Roca Sabina","lat":-34.89591,"lon":-56.23129}
{"id":3440763,"name":"Punta del Rodeo","name_accents":"Punta del Rodeo","name_aliases":"Punta de la Pedrera,Punta del Rodeo,Punta del Sur Este","lat":-34.89515,"lon":-56.24524}
{"id":3440774,"name":"Ca\u00f1ada de Rocha","name_accents":"Canada de Rocha","name_aliases":"Ca\u00f1ada de Rocha","lat":-34.85,"lon":-56.38333}
{"id":3440787,"name":"Roca R\u00edo Negro","name_accents":"Roca Rio Negro","name_aliases":"Roca R\u00edo Negro","lat":-34.88604,"lon":-56.22679}
{"id":3440799,"name":"Ba\u00f1ados del Rinc\u00f3n de Melilla","name_accents":"Banados del Rincon de Melilla","name_aliases":"Ba\u00f1ados del Rinc\u00f3n de Melilla","lat":-34.71667,"lon":-56.33333}
{"id":3440844,"name":"Reducto","name_accents":"Reducto","name_aliases":"Reducto","lat":-34.88333,"lon":-56.18333}
{"id":3440850,"name":"Piedra Redonda","name_accents":"Piedra Redonda","name_aliases":"Piedra Redonda","lat":-34.89118,"lon":-56.24122}
{"id":3440870,"name":"Punta Ram\u00edrez","name_accents":"Punta Ramirez","name_aliases":"Punta Ramirez,Punta Ram\u00edrez","lat":-34.92167,"lon":-56.16972}
{"id":3440871,"name":"Playa Ram\u00edrez","name_accents":"Playa Ramirez","name_aliases":"Ramirez,Ram\u00edrez","lat":-34.9162,"lon":-56.17018}
{"id":3440872,"name":"Ensenada de Ram\u00edrez","name_accents":"Ensenada de Ramirez","name_aliases":"Ensenada Ramirez,Ensenada de Ramirez,Ensenada de Ram\u00edrez,La Ensenada de Ramirez,La Ensenada de Ram\u00edrez","lat":-34.91667,"lon":-56.16667}
{"id":3440941,"name":"Barrio Punta Carretas","name_accents":"Barrio Punta Carretas","name_aliases":"Barrio Punta Carretas","lat":-34.91838,"lon":-56.16391}
{"id":3440942,"name":"Punta Carretas","name_accents":"Punta Carretas","name_aliases":"Punta Carretas","lat":-34.92278,"lon":-56.15972}
{"id":3440952,"name":"Pueblo Ferrocarril","name_accents":"Pueblo Ferrocarril","name_aliases":"Ferro Carril,Pueblo Ferrocarril","lat":-34.8,"lon":-56.21667}
{"id":3440958,"name":"Conciliaci\u00f3n","name_accents":"Conciliacion","name_aliases":"Conciliacion,Conciliaci\u00f3n,Pueblo Conciliacion,Pueblo Conciliaci\u00f3n","lat":-34.83333,"lon":-56.23333}
{"id":3441010,"name":"Playa Pocitas","name_accents":"Playa Pocitas","name_aliases":"Playa de los Pocitos,Pocitas,Pocitos Beach","lat":-34.91507,"lon":-56.14773}
{"id":3441011,"name":"Pocitos","name_accents":"Pocitos","name_aliases":"Pocitos","lat":-34.90972,"lon":-56.15222}
{"id":3441122,"name":"Piedras Blancas","name_accents":"Piedras Blancas","name_aliases":"Balneario Piedras Blancas,Piedras Blancas","lat":-34.82861,"lon":-56.13944}
{"id":3441140,"name":"Arroyo de las Piedras","name_accents":"Arroyo de las Piedras","name_aliases":"Arroyo de las Piedras,Piedras","lat":-34.70206,"lon":-56.32363}
{"id":3441174,"name":"Cuchilla de Periera","name_accents":"Cuchilla de Periera","name_aliases":"Cuchilla de Periera","lat":-34.76667,"lon":-56.3}
{"id":3441178,"name":"Punta P\u00e9rez","name_accents":"Punta Perez","name_aliases":"Punta Chica","lat":-34.91599,"lon":-56.18509}
{"id":3441197,"name":"Ca\u00f1ada del Peral","name_accents":"Canada del Peral","name_aliases":"Ca\u00f1ada del Peral","lat":-34.76667,"lon":-56.35}
{"id":3441204,"name":"Pe\u00f1arol","name_accents":"Penarol","name_aliases":"Pe\u00f1arol","lat":-34.81667,"lon":-56.18333}
{"id":3441205,"name":"Pe\u00f1arol","name_accents":"Penarol","name_aliases":"Penarol,Pe\u00f1arol","lat":-34.81667,"lon":-56.18333}
{"id":3441231,"name":"Punta Pedregal","name_accents":"Punta Pedregal","name_aliases":"Punta Pedregal,Punta del Pedregal","lat":-34.88597,"lon":-56.33308}
{"id":3441262,"name":"Paso Molino","name_accents":"Paso Molino","name_aliases":"Paso Molino,Paso del Molino","lat":-34.85706,"lon":-56.21919}
{"id":3441288,"name":"Estaci\u00f3n Paso de la Arena","name_accents":"Estacion Paso de la Arena","name_aliases":"Estacion Paso de la Arena,Estaci\u00f3n Paso de la Arena,Paso de la Arena","lat":-34.83333,"lon":-56.26667}
{"id":3441292,"name":"Paso de Carrasco","name_accents":"Paso de Carrasco","name_aliases":"Paso de Carrasco","lat":-34.86028,"lon":-56.05222}
{"id":3441322,"name":"Arroyo Pantanoso","name_accents":"Arroyo Pantanoso","name_aliases":"Arroyo Pantanoso,Arroyo del Pantanoso,Colorado River,Panta","lat":-34.8756,"lon":-56.24163}
{"id":3441404,"name":"Punta Pajonal","name_accents":"Punta Pajonal","name_aliases":"Punta Pajonal","lat":-34.79917,"lon":-56.38361}
{"id":3441405,"name":"Ca\u00f1ada Pajas Blancas Chica","name_accents":"Canada Pajas Blancas Chica","name_aliases":"Canada Pajas Blancas Chica,Ca\u00f1ada Pajas Blancas Chica,Pajas Blancas Chica","lat":-34.76667,"lon":-56.35}
{"id":3441407,"name":"Ca\u00f1ada Pajas Blancas","name_accents":"Canada Pajas Blancas","name_aliases":"Ca\u00f1ada Pajas Blancas","lat":-34.76667,"lon":-56.35}
{"id":3441414,"name":"Pajas Blancas","name_accents":"Pajas Blancas","name_aliases":"Pajas Blancas,Playa Pajas Blancas","lat":-34.86751,"lon":-56.33345}
{"id":3441475,"name":"Nuevo Par\u00eds","name_accents":"Nuevo Paris","name_aliases":"Balneario Nuevo Paris,Nuevo Paris,Nuevo Par\u00eds","lat":-34.85,"lon":-56.23333}
{"id":3441541,"name":"Ca\u00f1ada de los \u00d1ames","name_accents":"Canada de los Names","name_aliases":"Ca\u00f1ada de los \u00d1ames","lat":-34.85,"lon":-56.38333}
{"id":3441550,"name":"Ca\u00f1ada de las Mulas","name_accents":"Canada de las Mulas","name_aliases":"Canada de Mulas,Canada de las Mulas,Ca\u00f1ada de Mulas,Ca\u00f1ada de las Mulas","lat":-34.78333,"lon":-56.35}
{"id":3441571,"name":"Rada de Montevideo","name_accents":"Rada de Montevideo","name_aliases":"Montevideo Outer Roads,Montevideo Road,Rada de Montevideo","lat":-34.93333,"lon":-56.23333}
{"id":3441572,"name":"Departamento de Montevideo","name_accents":"Departamento de Montevideo","name_aliases":"Departamento Montevideo,Departamento de Montevideo,Montevideo","lat":-34.825,"lon":-56.2}
{"id":3441573,"name":"Cerro de Montevideo","name_accents":"Cerro de Montevideo","name_aliases":"Cerro de Montevideo,El Cerro","lat":-34.88878,"lon":-56.25985}
{"id":3441574,"name":"Bah\u00eda de Montevideo","name_accents":"Bahia de Montevideo","name_aliases":"Bahia Montevideo,Bahia de Montevideo,Bah\u00eda de Montevideo,Montevideo Bay","lat":-34.88966,"lon":-56.22399}
{"id":3441575,"name":"Montevideo","name_accents":"Montevideo","name_aliases":"Ciudad de Montevideo,MVD,Mantehvideha,Montebideo,Montevidejas,Montevideo,Montevideu,Montevidiejos,Montevid\u00e9u,Montevid\u0117jas,Montev\u00edde\u00f3,Muntivideu,Muntividew,Muntivid\u00e8u,Muntivid\u00ebw,Urbs Montis Videi,mantibhiri'o,meantevidiyea,meng de wei de ya,meng te wei duo,montebide'o,montebide-o,montebideo,montevide'o,montevidi'o,montevidiyo,montevitiyo,mwntfydw,mwnth wydyw,mwntybydyw,mxn te wi de xo,\u039c\u03bf\u03bd\u03c4\u03b5\u03b2\u03b9\u03b4\u03ad\u03bf,\u041c\u0430\u043d\u0442\u044d\u0432\u0456\u0434\u044d\u0430,\u041c\u043e\u043d\u0442\u0435\u0432\u0438\u0434\u0435\u043e,\u041c\u043e\u043d\u0442\u0435\u0432\u0456\u0434\u0435\u043e,\u0544\u0578\u0576\u057f\u0587\u056b\u0564\u0565\u0578,\u05de\u05d0\u05e0\u05d8\u05e2\u05d5\u05d5\u05d9\u05d3\u05e2\u05d0,\u05de\u05d5\u05e0\u05d8\u05d5\u05d5\u05d9\u05d3\u05d0\u05d5,\u0645\u0648\u0646\u062a\u0641\u064a\u062f\u0648,\u0645\u0648\u0646\u062a\u0647 \u0648\u06cc\u062f\u0626\u0648,\u0645\u0648\u0646\u062a\u0647\u200c\u0648\u06cc\u062f\u0626,\u0645\u0648\u0646\u062a\u0647\u200c\u0648\u06cc\u062f\u0626\u0648,\u0645\u0648\u0646\u062a\u06cc\u0628\u06cc\u062f\u06cc\u0648,\u0645\u0648\u0646\u062a\u06d0\u06cb\u0649\u062f\u06d0\u0626\u0648,\u092e\u094b\u0923\u094d\u091f\u0947\u0935\u0940\u0921\u093f\u092f\u094b,\u092e\u094b\u0928\u094d\u0924\u0947\u0935\u093f\u0926\u0947\u0913,\u09ae\u09cb\u09a8\u09cd\u09a4\u09c7\u09ac\u09bf\u09a6\u09c7\u0993,\u0a2e\u0a4b\u0a02\u0a24\u0a47\u0a35\u0a40\u0a26\u0a3f\u0a13,\u0b2e\u0b23\u0b4d\u0b1f\u0b3f\u0b2d\u0b3f\u0b21\u0b3c\u0b3f\u0b13,\u0bae\u0bca\u0ba3\u0bcd\u0b9f\u0bc7\u0bb5\u0bc0\u0b9f\u0bbf\u0baf\u0bcb,\u0d2e\u0d4a\u0d23\u0d4d\u0d1f\u0d47\u0d35\u0d40\u0d21\u0d3f\u0d2f\u0d4b,\u0e21\u0e2d\u0e19\u0e40\u0e15\u0e27\u0e34\u0e40\u0e14\u0e42\u0e2d,\u0f58\u0f71\u0f7c\u0f53\u0f0b\u0f4a\u0f72\u0f0b\u0f5d\u0f72\u0f0b\u0f4c\u0f7c\u0f0d,\u1019\u103d\u1014\u103a\u1010\u102e\u1017\u1005\u103a\u1012\u102e\u1021\u102d\u102f\u1019\u103c\u102d\u102f\u1037,\u10db\u10dd\u10dc\u10e2\u10d4\u10d5\u10d8\u10d3\u10d4\u10dd,\u121e\u1295\u1274\u126a\u12f4\u12ce,\u30e2\u30f3\u30c6\u30d3\u30c7\u30aa,\u8499\u5f97\u7ef4\u7684\u4e9a,\u8499\u7279\u7dad\u591a,\ubaac\ud14c\ube44\ub370\uc624","lat":-34.90328,"lon":-56.18816}
{"id":3441581,"name":"Punta Monte","name_accents":"Punta Monte","name_aliases":"Punta Monte,Punta del Monte","lat":-34.85,"lon":-56.4}
{"id":3441583,"name":"Isla del Mono","name_accents":"Isla del Mono","name_aliases":"Isla Meldroza,Isla del Mono","lat":-34.91667,"lon":-56.11667}
{"id":3441647,"name":"Miramar","name_accents":"Miramar","name_aliases":"Balneario Miramar","lat":-34.88491,"lon":-56.03929}
{"id":3441676,"name":"Cuchilla de Miguelete","name_accents":"Cuchilla de Miguelete","name_aliases":"Cuchilla de Miguelete","lat":-34.75,"lon":-56.21667}
{"id":3441677,"name":"Arroyo del Miguelete","name_accents":"Arroyo del Miguelete","name_aliases":"Arroyo Miguelete,Arroyo del Miguelete,Miguelete,Rio de Miguelete","lat":-34.87234,"lon":-56.22552}
{"id":3441689,"name":"Arroyo de Mendoza","name_accents":"Arroyo de Mendoza","name_aliases":"Arroyo Mendoza,Arroyo de Mendoza,Arroyo de Mendoza de Miguelete,Mendoza","lat":-34.7975,"lon":-56.18}
{"id":3441705,"name":"Arroyo de Melilla","name_accents":"Arroyo de Melilla","name_aliases":"Arroyo Melilla,Arroyo de Melilla","lat":-34.77736,"lon":-56.34232}
{"id":3441706,"name":"Melilla","name_accents":"Melilla","name_aliases":"Melilla","lat":-34.78333,"lon":-56.25}
{"id":3441797,"name":"Maro\u00f1as","name_accents":"Maronas","name_aliases":"Maronas,Maro\u00f1as","lat":-34.85,"lon":-56.11667}
{"id":3441825,"name":"Punta Mansa","name_accents":"Punta Mansa","name_aliases":"Punta Carretas,Punta Mansa,Punta Manso,Punta Manzo","lat":-34.89932,"lon":-56.06486}
{"id":3441848,"name":"Estaci\u00f3n Manga","name_accents":"Estacion Manga","name_aliases":"Estacion Manga,Estaci\u00f3n Manga,Manga","lat":-34.8,"lon":-56.15}
{"id":3441850,"name":"Arroyo Manga","name_accents":"Arroyo Manga","name_aliases":"Arroyo Manga,Arroyo Manga de Carrasco,Manga","lat":-34.8305,"lon":-56.05541}
{"id":3441853,"name":"Manga","name_accents":"Manga","name_aliases":"Manga","lat":-34.81667,"lon":-56.1}
{"id":3441872,"name":"Playa de Malv\u00edn","name_accents":"Playa de Malvin","name_aliases":"Malvin","lat":-34.8972,"lon":-56.10761}
{"id":3441873,"name":"Malv\u00edn","name_accents":"Malvin","name_aliases":"Malv\u00edn","lat":-34.9,"lon":-56.1}
{"id":3441924,"name":"Islote de la Luz","name_accents":"Islote de la Luz","name_aliases":"Isla de La Luz,Isleta Luz,Islote de la Luz,Luz Island,Piedra de la Mulata,Roca de los Pajaros,Roca de los P\u00e1jaros","lat":-34.91667,"lon":-56.05}
{"id":3441971,"name":"Punta de Lobos","name_accents":"Punta de Lobos","name_aliases":"Lobos Point,Punta Lobos,Punta de Lobos","lat":-34.90529,"lon":-56.25901}
{"id":3441987,"name":"Isla de la Libertad","name_accents":"Isla de la Libertad","name_aliases":"Isla Libertad,Isla Ratones,Isla de Conejos,Isla de Ratas,Isla de la Libertad,Isla la Libertad,Rat Island","lat":-34.88852,"lon":-56.23442}
{"id":3442010,"name":"Lavaderos","name_accents":"Lavaderos","name_aliases":"Lavaderos,Lavaderos del Este","lat":-34.9,"lon":-56.1}
{"id":3442046,"name":"Roca La Teja","name_accents":"Roca La Teja","name_aliases":"Piedra La Teja,Piedra Lafone,Piedra la Teja,Roca La Teja,Roca Lafone","lat":-34.88333,"lon":-56.23333}
{"id":3442056,"name":"Estaci\u00f3n Las Piedras","name_accents":"Estacion Las Piedras","name_aliases":"Estacion Las Piedras,Estaci\u00f3n Las Piedras,Las Piedras,Piedras","lat":-34.72773,"lon":-56.22023}
{"id":3442057,"name":"Las Piedras","name_accents":"Las Piedras","name_aliases":"Las Pedras,Las Piedras,Las Piedrasas,Las Pjedras,Las-P'edras,Piedras,San Isidrio,Villa de las Piedras,la si bi de la si,lasa piyedrasa,laseupiedeulaseu,\u041b\u0430\u0441 \u041f\u0438\u0435\u0434\u0440\u0430\u0441,\u041b\u0430\u0441-\u041f\u044c\u0435\u0434\u0440\u0430\u0441,\u053c\u0561\u057d \u054a\u0565\u0564\u0580\u0561\u057d,\u0644\u0627\u0633 \u067e\u06cc\u0688\u0631\u0627\u0633\u060c \u06cc\u0648\u0631\u0627\u06af\u0648\u0626\u06d2,\u0644\u0627\u0633\u200c\u067e\u06cc\u062f\u0631\u0627\u0633\u060c \u0627\u0631\u0648\u06af\u0648\u0626\u0647,\u09b2\u09be\u09b8 \u09aa\u09bf\u09af\u09bc\u09c7\u09a6\u09cd\u09b0\u09be\u09b8,\u10da\u10d0\u10e1-\u10de\u10d8\u10d4\u10d3\u10e0\u10d0\u10e1\u10d8,\u30e9\u30b9\u30fb\u30d4\u30a8\u30c9\u30e9\u30b9,\u62c9\u65af\u5f7c\u5fb7\u62c9\u65af,\ub77c\uc2a4\ud53c\uc5d0\ub4dc\ub77c\uc2a4","lat":-34.7302,"lon":-56.21915}
{"id":3442097,"name":"Estaci\u00f3n La Paz","name_accents":"Estacion La Paz","name_aliases":"Estacion La Paz,Estaci\u00f3n La Paz,La Paz","lat":-34.76325,"lon":-56.22307}
{"id":3442098,"name":"La Paz","name_accents":"La Paz","name_aliases":"La Paz","lat":-34.76031,"lon":-56.2259}
{"id":3442111,"name":"Playa la Mulata","name_accents":"Playa la Mulata","name_aliases":"Playa la Mulata","lat":-34.89887,"lon":-56.06924}
{"id":3442137,"name":"La Floresta","name_accents":"La Floresta","name_aliases":"Balneario Floresta,La Floresta","lat":-34.83333,"lon":-56.21667}
{"id":3442178,"name":"Ca\u00f1ada del Juncal","name_accents":"Canada del Juncal","name_aliases":"Canada Juncal,Canada del Juncal,Ca\u00f1ada Juncal,Ca\u00f1ada del Juncal","lat":-34.71667,"lon":-56.33333}
{"id":3442235,"name":"Estaci\u00f3n Su\u00e1rez","name_accents":"Estacion Suarez","name_aliases":"Estacion J. Suarez,Estacion Joaquin Suarez,Estacion Suarez,Estacion de Joaquin Suarez,Estaci\u00f3n J. Su\u00e1rez,Estaci\u00f3n Joaqu\u00edn Su\u00e1rez,Estaci\u00f3n Su\u00e1rez,Estaci\u00f3n de Joaqu\u00edn Su\u00e1rez,Joaquin Suarez,Joaqu\u00edn Su\u00e1rez,Suarez","lat":-34.73629,"lon":-56.03637}
{"id":3442236,"name":"Joaqu\u00edn Su\u00e1rez","name_accents":"Joaquin Suarez","name_aliases":"J. Suarez,Joaquin Suarez,Joaqu\u00edn Su\u00e1rez,Pueblo Joaquin Suarez,Pueblo Joaqu\u00edn Su\u00e1rez,Suarez,Su\u00e1rez","lat":-34.73501,"lon":-56.0347}
{"id":3442248,"name":"Ituzaing\u00f3","name_accents":"Ituzaingo","name_aliases":"Ituzaingo,Ituzaing\u00f3,Pueblo Ituzaingo,Pueblo Ituzaing\u00f3","lat":-34.85,"lon":-56.11667}
{"id":3442340,"name":"Isla Humphreys","name_accents":"Isla Humphreys","name_aliases":"Isla Humphreys","lat":-34.89368,"lon":-56.24206}
{"id":3442508,"name":"Punta Gorda","name_accents":"Punta Gorda","name_aliases":"Punta Gorda","lat":-34.9,"lon":-56.08176}
{"id":3442520,"name":"Punta Gomensoro","name_accents":"Punta Gomensoro","name_aliases":"Punta Gomensoro","lat":-34.9,"lon":-56.11667}
{"id":3442532,"name":"Isla de las Gaviotas","name_accents":"Isla de las Gaviotas","name_aliases":"Isla Gaviota,Isla de los Gaviotas,Islote de las Gaviotas","lat":-34.90277,"lon":-56.10441}
{"id":3442562,"name":"Punta de Fuerte","name_accents":"Punta de Fuerte","name_aliases":"Punta de Fuerte","lat":-34.86667,"lon":-56.25}
{"id":3442583,"name":"Bajo Forest King","name_accents":"Bajo Forest King","name_aliases":"Bajo Forest King,Forest King Reef","lat":-34.91667,"lon":-56.05}
{"id":3442590,"name":"Bajo Flores","name_accents":"Bajo Flores","name_aliases":"Bajo Flores","lat":-34.91667,"lon":-56.11667}
{"id":3442598,"name":"Flor de Maro\u00f1as","name_accents":"Flor de Maronas","name_aliases":"Balneario Flor de Maronas,Balneario Flor de Maro\u00f1as,Flor de Maronas,Flor de Maro\u00f1as","lat":-34.85,"lon":-56.11667}
{"id":3442626,"name":"Banco de la Familia","name_accents":"Banco de la Familia","name_aliases":"Banco de San Pedro,Banco de la Familia,Piedras de San Pedro","lat":-34.9,"lon":-56.2}
{"id":3442658,"name":"Punta Espinillo","name_accents":"Punta Espinillo","name_aliases":"Espinillo,Punta Espinillo,Punta del Espinillo","lat":-34.82813,"lon":-56.43119}
{"id":3442667,"name":"Cerro de las Espinas","name_accents":"Cerro de las Espinas","name_aliases":"Cerro de las Espinas","lat":-34.88333,"lon":-56.23333}
{"id":3442682,"name":"Empalme Sauce","name_accents":"Empalme Sauce","name_aliases":"Empalme Sauce","lat":-34.71528,"lon":-56.07333}
{"id":3442691,"name":"Roca El Omb\u00fa","name_accents":"Roca El Ombu","name_aliases":"Roca El Omb\u00fa","lat":-34.88333,"lon":-56.21667}
{"id":3442712,"name":"El Arriero","name_accents":"El Arriero","name_aliases":"El Arriero,Isla Piedras del Arriero Grande,Piedra del Arriero,Piedro del Arriero","lat":-34.8,"lon":-56.4}
{"id":3442777,"name":"Punta del Descanso","name_accents":"Punta del Descanso","name_aliases":"Punta Descanso,Punta del Descanso","lat":-34.89944,"lon":-56.10074}
{"id":3442778,"name":"Delta del Tigre","name_accents":"Delta del Tigre","name_aliases":"Delta del Tigre","lat":-34.76488,"lon":-56.3645}
{"id":3442780,"name":"Piedra Dellazoppa","name_accents":"Piedra Dellazoppa","name_aliases":"Piedra Dellazoppa,Roca Dellazoppa,Roca Sola","lat":-34.91667,"lon":-56.28333}
{"id":3442926,"name":"Cord\u00f3n","name_accents":"Cordon","name_aliases":"Cordon,Cord\u00f3n","lat":-34.905,"lon":-56.16833}
{"id":3442975,"name":"Arroyo Colorado","name_accents":"Arroyo Colorado","name_aliases":"Arroyo Colorado,Arroyo Colorado Grande,Arroyo del Colorado,Colorado,Colorado Grande","lat":-34.72325,"lon":-56.35072}
{"id":3443029,"name":"Estaci\u00f3n Col\u00f3n","name_accents":"Estacion Colon","name_aliases":"Colon,Col\u00f3n,Estacion Colon,Estaci\u00f3n Col\u00f3n","lat":-34.8,"lon":-56.23333}
{"id":3443030,"name":"Col\u00f3n","name_accents":"Colon","name_aliases":"Colon,Col\u00f3n,Villa Colon,Villa Col\u00f3n","lat":-34.8,"lon":-56.23333}
{"id":3443056,"name":"Arroyo Cimarr\u00f3n","name_accents":"Arroyo Cimarron","name_aliases":"Arroyo Cimarr\u00f3n","lat":-34.78333,"lon":-56.38333}
{"id":3443159,"name":"Chacarita","name_accents":"Chacarita","name_aliases":"Balneario Chacarita,Chacarita","lat":-34.85,"lon":-56.08333}
{"id":3443220,"name":"Centro","name_accents":"Centro","name_aliases":"Centro","lat":-34.90528,"lon":-56.19444}
{"id":3443281,"name":"Punta Castro","name_accents":"Punta Castro","name_aliases":"Punta Castro,Punte de Castro","lat":-34.86667,"lon":-56.38333}
{"id":3443313,"name":"Playa de Carrasco","name_accents":"Playa de Carrasco","name_aliases":"Playa Carrasco","lat":-34.88847,"lon":-56.04787}
{"id":3443314,"name":"Ba\u00f1ado de Carrasco","name_accents":"Banado de Carrasco","name_aliases":"Ba\u00f1ado de Carrasco","lat":-34.83333,"lon":-56.05}
{"id":3443315,"name":"Balneario Carrasco","name_accents":"Balneario Carrasco","name_aliases":"Balneario de Carrasco,Banado de Carrasco,Ba\u00f1ado de Carrasco,Carrasco","lat":-34.88987,"lon":-56.05182}
{"id":3443316,"name":"Arroyo de Carrasco","name_accents":"Arroyo de Carrasco","name_aliases":"Arroyo Carrasco,Arroyo de Carrasco,Carrasco","lat":-34.877,"lon":-56.02323}
{"id":3443317,"name":"Carrasco International Airport","name_accents":"Carrasco International Airport","name_aliases":"Aeroport international de Carrasco,Aeroporto Internacional de Carrasco,Aeropuerto Internacional de Carrasco,A\u00e9roport international de Carrasco,Carrasco International Airport,Flughafen Carrasco,MVD,Mezhdunarodnyj aehroport Karrasko,SUMU,ka la si ke guo ji ji chang,kalasako gugjegonghang,karasuko guo ji kong gang,\u041c\u0435\u0436\u0434\u0443\u043d\u0430\u0440\u043e\u0434\u043d\u044b\u0439 \u0430\u044d\u0440\u043e\u043f\u043e\u0440\u0442 \u041a\u0430\u0440\u0440\u0430\u0441\u043a\u043e,\u30ab\u30e9\u30b9\u30b3\u56fd\u969b\u7a7a\u6e2f,\u5361\u62c9\u65af\u79d1\u570b\u969b\u6a5f\u5834,\uce74\ub77c\uc0ac\ucf54 \uad6d\uc81c\uacf5\ud56d","lat":-34.83842,"lon":-56.03081}
{"id":3443373,"name":"Playa Capurro","name_accents":"Playa Capurro","name_aliases":"Playa Capurro,Playa de Capurro","lat":-34.86667,"lon":-56.21667}
{"id":3443374,"name":"Piedras de Capurro","name_accents":"Piedras de Capurro","name_aliases":"Piedras de Capurro","lat":-34.88333,"lon":-56.21667}
{"id":3443376,"name":"Capurro","name_accents":"Capurro","name_aliases":"Barrio de Capurro,Capurro","lat":-34.87048,"lon":-56.21618}
{"id":3443386,"name":"Boiso Lanza","name_accents":"Boiso Lanza","name_aliases":"Aerodromo Capitan Boiso Lanza,Aer\u00f3dromo Capit\u00e1n Boiso Lanza,Boiso Lanza","lat":-34.81151,"lon":-56.16432}
{"id":3443406,"name":"Ca\u00f1ada del Cangrejo","name_accents":"Canada del Cangrejo","name_aliases":"Ca\u00f1ada del Cangrejo","lat":-34.73333,"lon":-56.35}
{"id":3443439,"name":"Punta Canario","name_accents":"Punta Canario","name_aliases":"Punta Canario,Punta del Canario","lat":-34.93333,"lon":-56.15}
{"id":3443440,"name":"Punta del Canario","name_accents":"Punta del Canario","name_aliases":"Punta Canario,Punta del Canario","lat":-34.86472,"lon":-56.35639}
{"id":3443515,"name":"Roca Buen Viaje","name_accents":"Roca Buen Viaje","name_aliases":"Buen Viaje Reef,Piedras del Buen Viaje,Roca Buen Viaje,Rocas Buen Viaje","lat":-34.93333,"lon":-56.13333}
{"id":3443530,"name":"Punta del Buceo","name_accents":"Punta del Buceo","name_aliases":"Punta Buceo,Punta del Buceo","lat":-34.90917,"lon":-56.13222}
{"id":3443531,"name":"Puerto del Buceo","name_accents":"Puerto del Buceo","name_aliases":"Ensenada del Buceo,Puerto Buceo","lat":-34.90811,"lon":-56.13095}
{"id":3443532,"name":"Playa del Buceo","name_accents":"Playa del Buceo","name_aliases":"Buceo","lat":-34.89915,"lon":-56.12012}
{"id":3443533,"name":"Buceo","name_accents":"Buceo","name_aliases":"Buceo","lat":-34.9,"lon":-56.13333}
{"id":3443541,"name":"Punta Brava","name_accents":"Punta Brava","name_aliases":"Punta Brava,Punta Brava de Carretas,Punta de Carretas","lat":-34.9359,"lon":-56.16012}
{"id":3443596,"name":"Piedras Blancas","name_accents":"Piedras Blancas","name_aliases":"Isla Piedras Blancas,Piedra Blanca,Piedras Blancas","lat":-34.90972,"lon":-56.2606}
{"id":3443606,"name":"Isla Bizcochero","name_accents":"Isla Bizcochero","name_aliases":"Isla Bizcochero,Isla del Bizcochero,Islote de Bizcochero","lat":-34.87771,"lon":-56.24167}
{"id":3443622,"name":"Belvedere","name_accents":"Belvedere","name_aliases":"Belvedere","lat":-34.85,"lon":-56.21667}
{"id":3443628,"name":"Bella Vista","name_accents":"Bella Vista","name_aliases":"Barrio de Bella Vista,Bella Vista","lat":-34.87743,"lon":-56.20052}
{"id":3443632,"name":"Bella Italia","name_accents":"Bella Italia","name_aliases":"Balneario Bella Italia,Bella Italia","lat":-34.83333,"lon":-56.11667}
{"id":3443763,"name":"Arroyo Seco","name_accents":"Arroyo Seco","name_aliases":"Arroyo Seco","lat":-34.88333,"lon":-56.2}
{"id":3443858,"name":"Angel S Adami","name_accents":"Angel S Adami","name_aliases":"Aerodromo Angel Adami,Aerodromo Angel S. Adami,Aer\u00f3dromo \u00c1ngel Adami,Aer\u00f3dromo \u00c1ngel S. Adami,Angel S Adami","lat":-34.78902,"lon":-56.26494}
{"id":3443936,"name":"Cordon","name_accents":"Cordon","name_aliases":"Cordon","lat":-34.9,"lon":-56.18333}
{"id":3473787,"name":"Puerto del Buceo","name_accents":"Puerto del Buceo","name_aliases":"Puerto del Buceo","lat":-34.90992,"lon":-56.13175}
{"id":3473789,"name":"Ciudad Vieja","name_accents":"Ciudad Vieja","name_aliases":"Cidade Velha","lat":-34.90833,"lon":-56.20833}
{"id":3473790,"name":"Cementerio Central","name_accents":"Cementerio Central","name_aliases":"Cementerio Central","lat":-34.91399,"lon":-56.18767}
{"id":3473791,"name":"Dique Mau\u00e1","name_accents":"Dique Maua","name_aliases":"Dique Mau\u00e1","lat":-34.9124,"lon":-56.1991}
{"id":3473792,"name":"Escollera Sarand\u00ed","name_accents":"Escollera Sarandi","name_aliases":"East Breakwater","lat":-34.91207,"lon":-56.21844}
{"id":3473793,"name":"Escollera Oeste","name_accents":"Escollera Oeste","name_aliases":"West Breakwater","lat":-34.90844,"lon":-56.22967}
{"id":3473794,"name":"Piedra Fieramosca","name_accents":"Piedra Fieramosca","name_aliases":"Piedra Fieramosca","lat":-34.90833,"lon":-56.21667}
{"id":3473795,"name":"Muelle Fluvial","name_accents":"Muelle Fluvial","name_aliases":"Muelle Fluvial","lat":-34.90417,"lon":-56.21667}
{"id":3473797,"name":"Dique de la Armada","name_accents":"Dique de la Armada","name_aliases":"Dique de la Armada","lat":-34.90417,"lon":-56.25833}
{"id":3473798,"name":"Playa del Cerro","name_accents":"Playa del Cerro","name_aliases":"Playa del Cerro","lat":-34.89611,"lon":-56.25299}
{"id":3480815,"name":"Puerto de Montevideo","name_accents":"Puerto de Montevideo","name_aliases":"Montevideo,Port of Montevideo,Puerto de Montevideo","lat":-34.90222,"lon":-56.20861}
{"id":3480816,"name":"Cuchilla de Pereira","name_accents":"Cuchilla de Pereira","name_aliases":"Cuchilla de Pereira","lat":-34.80111,"lon":-56.27833}
{"id":3480817,"name":"Abayuba","name_accents":"Abayuba","name_aliases":"Abayuba","lat":-34.76417,"lon":-56.21389}
{"id":3480819,"name":"Villa Garc\u00eda","name_accents":"Villa Garcia","name_aliases":"Villa Garcia,Villa Garc\u00eda","lat":-34.78111,"lon":-56.05333}
{"id":3480820,"name":"Colonia Nicolich","name_accents":"Colonia Nicolich","name_aliases":"Colonia Nicolich","lat":-34.81516,"lon":-56.02435}
{"id":3480821,"name":"Villa Don Bosco","name_accents":"Villa Don Bosco","name_aliases":"Villa Don Bosco","lat":-34.80306,"lon":-56.08583}
{"id":3480822,"name":"Barra de Carrasco","name_accents":"Barra de Carrasco","name_aliases":"Barra de Carrasco","lat":-34.87722,"lon":-56.02972}
{"id":3480823,"name":"Carrasco","name_accents":"Carrasco","name_aliases":"Carrasco","lat":-34.88528,"lon":-56.06056}
{"id":3480824,"name":"Ca\u00f1ada Bellaca","name_accents":"Canada Bellaca","name_aliases":"Ca\u00f1ada Bellaca","lat":-34.83944,"lon":-56.26528}
{"id":3480825,"name":"Pajas Blancas","name_accents":"Pajas Blancas","name_aliases":"Pajas Blancas","lat":-34.80167,"lon":-56.33417}
{"id":6254932,"name":"British Schools Montevideo","name_accents":"British Schools Montevideo","name_aliases":"British Schools Montevideo","lat":-34.87606,"lon":-56.07129}
{"id":6300826,"name":"Melilla","name_accents":"Melilla","name_aliases":"SUAA","lat":-34.78921,"lon":-56.2647}
{"id":6468096,"name":"Tryp Montevideo","name_accents":"Tryp Montevideo","name_aliases":"Tryp Montevideo","lat":-34.92239,"lon":-56.16135}
{"id":6470201,"name":"Sheraton Montevideo Hotel","name_accents":"Sheraton Montevideo Hotel","name_aliases":"Sheraton Montevideo Hotel","lat":-34.92432,"lon":-56.1579}
{"id":6479609,"name":"Radisson Montevideo Victoria Plaza Hotel","name_accents":"Radisson Montevideo Victoria Plaza Hotel","name_aliases":"Radisson Montevideo Victoria Plaza Hotel","lat":-34.90571,"lon":-56.19952}
{"id":6499876,"name":"Nh Columbia","name_accents":"Nh Columbia","name_aliases":"Nh Columbia","lat":-34.90952,"lon":-56.20446}
{"id":6500217,"name":"Pocitos Plaza Hotel","name_accents":"Pocitos Plaza Hotel","name_aliases":"Pocitos Plaza Hotel","lat":-34.92034,"lon":-56.15123}
{"id":6507054,"name":"Regency Suites","name_accents":"Regency Suites","name_aliases":"Regency Suites","lat":-34.88956,"lon":-56.05754}
{"id":6512878,"name":"Days Inn Obelisco","name_accents":"Days Inn Obelisco","name_aliases":"Days Inn Obelisco","lat":-34.89347,"lon":-56.16763}
{"id":6523828,"name":"Lafayette","name_accents":"Lafayette","name_aliases":"Lafayette","lat":-34.90793,"lon":-56.19072}
{"id":6526250,"name":"Four Points Montevideo","name_accents":"Four Points Montevideo","name_aliases":"Four Points Montevideo","lat":-34.90697,"lon":-56.18695}
{"id":6526644,"name":"Balmoral","name_accents":"Balmoral","name_aliases":"Balmoral","lat":-34.90668,"lon":-56.19186}
{"id":6527799,"name":"Cala Di Volpe Boutique Hotel","name_accents":"Cala Di Volpe Boutique Hotel","name_aliases":"Cala Di Volpe Boutique Hotel","lat":-34.92648,"lon":-56.15744}
{"id":6532170,"name":"Ibis Montevideo","name_accents":"Ibis Montevideo","name_aliases":"Ibis Montevideo","lat":-34.91407,"lon":-56.18241}
{"id":6533171,"name":"Best Western Pedro Figari","name_accents":"Best Western Pedro Figari","name_aliases":"Best Western Pedro Figari","lat":-34.89027,"lon":-56.05347}
{"id":6696781,"name":"Edificio Panamericano","name_accents":"Edificio Panamericano","name_aliases":"Batiment Panamericano,Panamericano Building","lat":-34.90913,"lon":-56.13485}
{"id":6696782,"name":"Escuela No 17 Brasil (Montevideo)","name_accents":"Escuela No 17 Brasil (Montevideo)","name_aliases":"Escuela No 17 Brasil (Montevideo)","lat":-34.91145,"lon":-56.15112}
{"id":6696804,"name":"Edificio Ciudadela","name_accents":"Edificio Ciudadela","name_aliases":"Edificio Ciudadela","lat":-34.90686,"lon":-56.20107}
{"id":6696805,"name":"Liceo No 7 Joaquin Suarez (Montevideo)","name_accents":"Liceo No 7 Joaquin Suarez (Montevideo)","name_aliases":"Liceo N\u00b0 7 Joaquin Suarez (Montevideo)","lat":-34.91634,"lon":-56.15375}
{"id":6696806,"name":"Edificio Morumbi","name_accents":"Edificio Morumbi","name_aliases":"Edificio Morumbi","lat":-34.91236,"lon":-56.1504}
{"id":6696814,"name":"Palacio Pe\u00f1arol Contador Gast\u00f3n Guelfi","name_accents":"Palacio Penarol Contador Gaston Guelfi","name_aliases":"Palacio Pe\u00f1arol Contador Gast\u00f3n Guelfi","lat":-34.89893,"lon":-56.18246}
{"id":6696815,"name":"Estadio Jose Pedro Damiani (Las Acacias) Club Atletico Pe\u00f1arol","name_accents":"Estadio Jose Pedro Damiani (Las Acacias) Club Atletico Penarol","name_aliases":"Estadio Jose Pedro Damiani (Las Acacias) Club Atletico Pe\u00f1arol","lat":-34.84163,"lon":-56.1613}
{"id":6696816,"name":"Monumento a Luis Batlle Berres","name_accents":"Monumento a Luis Batlle Berres","name_aliases":"Monumento a Luis Batlle Berres","lat":-34.86957,"lon":-56.16783}
{"id":6696817,"name":"Edificio Lazaro Gadea","name_accents":"Edificio Lazaro Gadea","name_aliases":"Edificio Lazaro Gadea","lat":-34.9139,"lon":-56.15019}
{"id":6696818,"name":"Edificio Ensenada","name_accents":"Edificio Ensenada","name_aliases":"Edificio Ensenada","lat":-34.91073,"lon":-56.14627}
{"id":6696819,"name":"Edificio Zeus","name_accents":"Edificio Zeus","name_aliases":"Edificio Zeus","lat":-34.91146,"lon":-56.14605}
{"id":6696820,"name":"Edificio Marti","name_accents":"Edificio Marti","name_aliases":"Edificio Marti","lat":-34.91272,"lon":-56.14712}
{"id":6696821,"name":"Edificio Guayaqui","name_accents":"Edificio Guayaqui","name_aliases":"Edificio Guayaqui","lat":-34.91239,"lon":-56.14676}
{"id":6696822,"name":"Edificio Peru","name_accents":"Edificio Peru","name_aliases":"Edificio Peru","lat":-34.91187,"lon":-56.14622}
{"id":6696823,"name":"Edificio Pocitos","name_accents":"Edificio Pocitos","name_aliases":"Edificio Pocitos","lat":-34.91097,"lon":-56.14521}
{"id":6696826,"name":"Edificio Kohoutek","name_accents":"Edificio Kohoutek","name_aliases":"Edificio Kohoutek","lat":-34.90638,"lon":-56.1505}
{"id":6696827,"name":"Edificio Marber","name_accents":"Edificio Marber","name_aliases":"Edificio Marber","lat":-34.91151,"lon":-56.14962}
{"id":6696858,"name":"Edificio Ayala","name_accents":"Edificio Ayala","name_aliases":"Edificio Ayala","lat":-34.92158,"lon":-56.15624}
{"id":6696859,"name":"Edificio Via Moretti","name_accents":"Edificio Via Moretti","name_aliases":"Edificio Via Moretti","lat":-34.91988,"lon":-56.15285}
{"id":6696862,"name":"Edificio Ipanema","name_accents":"Edificio Ipanema","name_aliases":"Edificio Ipanema","lat":-34.91829,"lon":-56.15324}
{"id":6696864,"name":"Edificio Residencial Dino","name_accents":"Edificio Residencial Dino","name_aliases":"Edificio Residencial Dino","lat":-34.91995,"lon":-56.15096}
{"id":6696865,"name":"Edificio Salamanca","name_accents":"Edificio Salamanca","name_aliases":"Edificio Salamanca","lat":-34.91977,"lon":-56.15036}
{"id":6696866,"name":"Edificio Rey Martin IV","name_accents":"Edificio Rey Martin IV","name_aliases":"Edificio Rey Martin IV","lat":-34.91967,"lon":-56.15045}
{"id":6696867,"name":"Edificio Solano","name_accents":"Edificio Solano","name_aliases":"Edificio Solano","lat":-34.91928,"lon":-56.15057}
{"id":6696868,"name":"Edificio Trouville Plaza","name_accents":"Edificio Trouville Plaza","name_aliases":"Edificio Trouville Plaza","lat":-34.92052,"lon":-56.1497}
{"id":6696870,"name":"Edificio Residencial Castelar","name_accents":"Edificio Residencial Castelar","name_aliases":"Edificio Residencial Castelar","lat":-34.91507,"lon":-56.15041}
{"id":6696872,"name":"Edificio Panama","name_accents":"Edificio Panama","name_aliases":"Edificio Panama","lat":-34.91517,"lon":-56.1502}
{"id":6696873,"name":"Edificio Playamar","name_accents":"Edificio Playamar","name_aliases":"Edificio Playamar","lat":-34.91476,"lon":-56.15179}
{"id":6696874,"name":"Edificio Castropol","name_accents":"Edificio Castropol","name_aliases":"Edificio Castropol","lat":-34.91486,"lon":-56.15124}
{"id":6696875,"name":"Liceo No 28 (Montevideo)","name_accents":"Liceo No 28 (Montevideo)","name_aliases":"Liceo N\u00b0 28 (Montevideo)","lat":-34.9144,"lon":-56.153}
{"id":6696876,"name":"Edificio El Mastil","name_accents":"Edificio El Mastil","name_aliases":"Edificio El Mastil","lat":-34.91393,"lon":-56.14891}
{"id":6696877,"name":"Casa Williman","name_accents":"Casa Williman","name_aliases":"Casa Williman","lat":-34.91104,"lon":-56.15222}
{"id":6696878,"name":"Edificio Asociacion de Empleados Bancarios del Uruguay (AEBU)","name_accents":"Edificio Asociacion de Empleados Bancarios del Uruguay (AEBU)","name_aliases":"Edificio Asociacion de Empleados Bancarios del Uruguay (AEBU)","lat":-34.90905,"lon":-56.2026}
{"id":6696879,"name":"El Cabildo","name_accents":"El Cabildo","name_aliases":"El Cabildo","lat":-34.90657,"lon":-56.20284}
{"id":6696880,"name":"Edificio Rio Branco","name_accents":"Edificio Rio Branco","name_aliases":"Edificio Rio Branco","lat":-34.9108,"lon":-56.19521}
{"id":6696881,"name":"Edificio Rizan IV","name_accents":"Edificio Rizan IV","name_aliases":"Edificio Rizan IV","lat":-34.90947,"lon":-56.19564}
{"id":6696882,"name":"Edificio Palacio Rinaldi","name_accents":"Edificio Palacio Rinaldi","name_aliases":"Edificio Palacio Rinaldi","lat":-34.9062,"lon":-56.1985}
{"id":6696883,"name":"Archivo General de la Nacion","name_accents":"Archivo General de la Nacion","name_aliases":"Archivo General de la Nacion","lat":-34.90408,"lon":-56.19705}
{"id":6696884,"name":"Edificio Falco","name_accents":"Edificio Falco","name_aliases":"Edificio Falco","lat":-34.90228,"lon":-56.19609}
{"id":6696885,"name":"Edificio Lapido","name_accents":"Edificio Lapido","name_aliases":"Edificio Lapido","lat":-34.90654,"lon":-56.196}
{"id":6696886,"name":"Edificio Brith","name_accents":"Edificio Brith","name_aliases":"Edificio Brith","lat":-34.90604,"lon":-56.1961}
{"id":6696887,"name":"Manos del Uruguay","name_accents":"Manos del Uruguay","name_aliases":"Manos del Uruguay","lat":-34.90679,"lon":-56.19202}
{"id":6696901,"name":"Edificio Modena","name_accents":"Edificio Modena","name_aliases":"Edificio Modena","lat":-34.9106,"lon":-56.14711}
{"id":6696902,"name":"Edificio Meipe","name_accents":"Edificio Meipe","name_aliases":"Edificio Meipe","lat":-34.91026,"lon":-56.1473}
{"id":6696903,"name":"Edificio De los Pocitos","name_accents":"Edificio De los Pocitos","name_aliases":"Edificio De los Pocitos","lat":-34.9108,"lon":-56.14676}
{"id":6696904,"name":"Casa Casabo","name_accents":"Casa Casabo","name_aliases":"Casa Casabo","lat":-34.92021,"lon":-56.15117}
{"id":6696905,"name":"Escuela No 3 Francia","name_accents":"Escuela No 3 Francia","name_aliases":"Escuela N\u00b0 3 Francia","lat":-34.91611,"lon":-56.16052}
{"id":6696922,"name":"Instituto Alfredo V\u00e1squez Acevedo (IAVA)","name_accents":"Instituto Alfredo Vasquez Acevedo (IAVA)","name_aliases":"Instituto Alfredo V\u00e1squez Acevedo (IAVA)","lat":-34.90372,"lon":-56.17584}
{"id":6696923,"name":"Edificio Plaza Real","name_accents":"Edificio Plaza Real","name_aliases":"Edificio Plaza Real","lat":-34.91668,"lon":-56.15036}
{"id":6696924,"name":"Edificio Rio Negro Park","name_accents":"Edificio Rio Negro Park","name_aliases":"Edificio Rio Negro Park","lat":-34.90217,"lon":-56.19415}
{"id":6696925,"name":"Edificio Atenea","name_accents":"Edificio Atenea","name_aliases":"Edificio Atenea","lat":-34.90772,"lon":-56.19202}
{"id":6696926,"name":"Edificio Residencial Gstaad","name_accents":"Edificio Residencial Gstaad","name_aliases":"Edificio Residencial Gstaad","lat":-34.92382,"lon":-56.15381}
{"id":6696929,"name":"Obelisco a los Constituyentes de 1830 (Montevideo)","name_accents":"Obelisco a los Constituyentes de 1830 (Montevideo)","name_aliases":"Obelisco a los Constituyentes de 1830 (Montevideo)","lat":-34.89741,"lon":-56.16428}
{"id":6696930,"name":"Edificio Champs Elys\u00e9es","name_accents":"Edificio Champs Elysees","name_aliases":"Edificio Champs Elys\u00e9es","lat":-34.90441,"lon":-56.16347}
{"id":6697027,"name":"Edificio Electra","name_accents":"Edificio Electra","name_aliases":"Edificio Electra","lat":-34.91583,"lon":-56.15438}
{"id":6697028,"name":"Edificio Centenario","name_accents":"Edificio Centenario","name_aliases":"Edificio Centenario","lat":-34.90531,"lon":-56.2046}
{"id":6697029,"name":"Edificio de la Cooperativa Bancaria","name_accents":"Edificio de la Cooperativa Bancaria","name_aliases":"Edificio de la Cooperativa Bancaria","lat":-34.90801,"lon":-56.20721}
{"id":6697030,"name":"Instituto de Ense\u00f1anza de la Construccion Ingeniero Cayetano Carcavallo (UTU)","name_accents":"Instituto de Ensenanza de la Construccion Ingeniero Cayetano Carcavallo (UTU)","name_aliases":"Instituto de Ense\u00f1anza de la Construccion Ingeniero Cayetano Carcavallo (UTU)","lat":-34.89929,"lon":-56.17506}
{"id":6697031,"name":"Universidad del Trabajo del Uruguay (UTU)","name_accents":"Universidad del Trabajo del Uruguay (UTU)","name_aliases":"Universidad del Trabajo del Uruguay (UTU)","lat":-34.91168,"lon":-56.17859}
{"id":6697051,"name":"Casa Crespi","name_accents":"Casa Crespi","name_aliases":"Casa Crespi","lat":-34.92,"lon":-56.16468}
{"id":6697052,"name":"Casa Nowinski","name_accents":"Casa Nowinski","name_aliases":"Casa Nowinski","lat":-34.87488,"lon":-56.04079}
{"id":6697053,"name":"Edificio Bonanza","name_accents":"Edificio Bonanza","name_aliases":"Edificio Bonanza","lat":-34.91141,"lon":-56.14664}
{"id":6697054,"name":"Edificio Rio de la Plata","name_accents":"Edificio Rio de la Plata","name_aliases":"Edificio Rio de la Plata","lat":-34.91779,"lon":-56.1491}
{"id":6697061,"name":"Edificio Ganahani","name_accents":"Edificio Ganahani","name_aliases":"Edificio Ganahani","lat":-34.91102,"lon":-56.14591}
{"id":6697062,"name":"Edificio Pleyades","name_accents":"Edificio Pleyades","name_aliases":"Edificio Pleyades","lat":-34.91203,"lon":-56.1464}
{"id":6697063,"name":"Edificio Fuentes","name_accents":"Edificio Fuentes","name_aliases":"Edificio Fuentes","lat":-34.90953,"lon":-56.14745}
{"id":6697064,"name":"Edificio Naciones Unidas IV","name_accents":"Edificio Naciones Unidas IV","name_aliases":"Edificio Naciones Unidas IV","lat":-34.91108,"lon":-56.1453}
{"id":6697065,"name":"Edificio Picaso","name_accents":"Edificio Picaso","name_aliases":"Edificio Picaso","lat":-34.91186,"lon":-56.15088}
{"id":6697066,"name":"Casa Perotti","name_accents":"Casa Perotti","name_aliases":"Casa Perotti","lat":-34.90998,"lon":-56.15111}
{"id":6697067,"name":"Edificio Palacio D\u00edaz","name_accents":"Edificio Palacio Diaz","name_aliases":"Edificio Palacio D\u00edaz","lat":-34.90531,"lon":-56.18738}
{"id":6697068,"name":"Edificio Torres del Nuevo Mundo","name_accents":"Edificio Torres del Nuevo Mundo","name_aliases":"Edificio Torres del Nuevo Mundo","lat":-34.92879,"lon":-56.16064}
{"id":6697070,"name":"Edificio Masimar","name_accents":"Edificio Masimar","name_aliases":"Edificio Masimar","lat":-34.91226,"lon":-56.14823}
{"id":6697083,"name":"Edificio Tabare","name_accents":"Edificio Tabare","name_aliases":"Edificio Tabare","lat":-34.92738,"lon":-56.15865}
{"id":6697103,"name":"Edificio Moncaut","name_accents":"Edificio Moncaut","name_aliases":"Edificio Moncaut","lat":-34.90919,"lon":-56.16886}
{"id":6697132,"name":"Escuela Alemania","name_accents":"Escuela Alemania","name_aliases":"Escuela Alemania","lat":-34.87604,"lon":-56.18597}
{"id":6697140,"name":"Casa Quinta Doctor Carlos Vaz Ferreira","name_accents":"Casa Quinta Doctor Carlos Vaz Ferreira","name_aliases":"Casa Quinta Doctor Carlos Vaz Ferreira","lat":-34.8616,"lon":-56.19051}
{"id":6697426,"name":"Casa Juan Alberto Schiaffino","name_accents":"Casa Juan Alberto Schiaffino","name_aliases":"Casa Juan Alberto Schiaffino","lat":-34.89642,"lon":-56.07464}
{"id":6697427,"name":"Edificio Sansue\u00f1a","name_accents":"Edificio Sansuena","name_aliases":"Edificio Sansue\u00f1a","lat":-34.91592,"lon":-56.15398}
{"id":6697428,"name":"Edificio La Villette","name_accents":"Edificio La Villette","name_aliases":"Edificio La Villette","lat":-34.91152,"lon":-56.14842}
{"id":6697429,"name":"Edificio Lindoia","name_accents":"Edificio Lindoia","name_aliases":"Edificio Lindoia","lat":-34.9111,"lon":-56.14976}
{"id":6697430,"name":"Edificio Nantes","name_accents":"Edificio Nantes","name_aliases":"Edificio Nantes","lat":-34.91063,"lon":-56.14904}
{"id":6697431,"name":"Edificio Altos de Sarmiento","name_accents":"Edificio Altos de Sarmiento","name_aliases":"Edificio Altos de Sarmiento","lat":-34.9149,"lon":-56.16157}
{"id":6698415,"name":"Edificio Rey Martin III","name_accents":"Edificio Rey Martin III","name_aliases":"Edificio Rey Martin III","lat":-34.92272,"lon":-56.15397}
{"id":6698416,"name":"Edificio Le Park","name_accents":"Edificio Le Park","name_aliases":"Edificio Le Park","lat":-34.92243,"lon":-56.15272}
{"id":6698417,"name":"Edificio Atalaya","name_accents":"Edificio Atalaya","name_aliases":"Edificio Atalaya","lat":-34.91776,"lon":-56.14926}
{"id":6698418,"name":"Edificio Italia","name_accents":"Edificio Italia","name_aliases":"Edificio Italia","lat":-34.91746,"lon":-56.15072}
{"id":6698419,"name":"Edificio Solis","name_accents":"Edificio Solis","name_aliases":"Edificio Solis","lat":-34.91537,"lon":-56.14925}
{"id":6698420,"name":"Edificio Las Palmas","name_accents":"Edificio Las Palmas","name_aliases":"Edificio Las Palmas","lat":-34.91541,"lon":-56.14906}
{"id":6698421,"name":"Edificio L\u00b4Etoile","name_accents":"Edificio L'Etoile","name_aliases":"Edificio L\u00b4Etoile","lat":-34.91566,"lon":-56.14904}
{"id":6698422,"name":"Edificio Berro","name_accents":"Edificio Berro","name_aliases":"Edificio Berro","lat":-34.90837,"lon":-56.14509}
{"id":6698570,"name":"Casa Arcieri","name_accents":"Casa Arcieri","name_aliases":"Casa Arcieri","lat":-34.89848,"lon":-56.0675}
{"id":6698571,"name":"Edificio Marti (MV)","name_accents":"Edificio Marti (MV)","name_aliases":"Edificio Marti (MV)","lat":-34.91064,"lon":-56.15087}
{"id":6698572,"name":"Edificio Cibeles","name_accents":"Edificio Cibeles","name_aliases":"Edificio Cibeles","lat":-34.90945,"lon":-56.14729}
{"id":6698573,"name":"Edificio Barreymar","name_accents":"Edificio Barreymar","name_aliases":"Edificio Barreymar","lat":-34.90965,"lon":-56.14597}
{"id":6698574,"name":"Edificio Del Sol II","name_accents":"Edificio Del Sol II","name_aliases":"Edificio Del Sol II","lat":-34.90968,"lon":-56.15083}
{"id":6698575,"name":"Edificio Romulo y Remo","name_accents":"Edificio Romulo y Remo","name_aliases":"Edificio Romulo y Remo","lat":-34.9076,"lon":-56.14936}
{"id":6698576,"name":"Edificio Ricor","name_accents":"Edificio Ricor","name_aliases":"Edificio Ricor","lat":-34.902,"lon":-56.17111}
{"id":6698618,"name":"Instituto Pauster de Montevideo","name_accents":"Instituto Pauster de Montevideo","name_aliases":"Instituto Pauster de Montevideo","lat":-34.88351,"lon":-56.11825}
{"id":6698619,"name":"Monumento a Jose Enrique Rodo","name_accents":"Monumento a Jose Enrique Rodo","name_aliases":"Monumento a Jose Enrique Rodo","lat":-34.91442,"lon":-56.1676}
{"id":6698636,"name":"Edificio El Positano","name_accents":"Edificio El Positano","name_aliases":"Edificio El Positano","lat":-34.90533,"lon":-56.16284}
{"id":6698637,"name":"Edificio Gilpe","name_accents":"Edificio Gilpe","name_aliases":"Edificio Gilpe","lat":-34.90783,"lon":-56.15834}
{"id":6698638,"name":"Hotel Ermitage","name_accents":"Hotel Ermitage","name_aliases":"Hotel Ermitage","lat":-34.91732,"lon":-56.15058}
{"id":6698639,"name":"Edificio O'Higgins","name_accents":"Edificio O'Higgins","name_aliases":"Edificio O'Higgins","lat":-34.92014,"lon":-56.15801}
{"id":6698650,"name":"Edificio Torre de los Profesionales","name_accents":"Edificio Torre de los Profesionales","name_aliases":"Edificio Torre de los Profesionales","lat":-34.90452,"lon":-56.18834}
{"id":6698651,"name":"Biblioteca Nacional","name_accents":"Biblioteca Nacional","name_aliases":"Biblioteca Nacional","lat":-34.90291,"lon":-56.17726}
{"id":6698652,"name":"Edificio Yapeyu","name_accents":"Edificio Yapeyu","name_aliases":"Edificio Yapeyu","lat":-34.89884,"lon":-56.16863}
{"id":6698653,"name":"Sanatorio Americano","name_accents":"Sanatorio Americano","name_aliases":"Sanatorio Americano","lat":-34.89929,"lon":-56.15991}
{"id":6698654,"name":"UNICEF Uruguay","name_accents":"UNICEF Uruguay","name_aliases":"UNICEF Uruguay","lat":-34.89747,"lon":-56.16495}
{"id":6698655,"name":"Hogar La Campana Fundacion Peluffo Guigens","name_accents":"Hogar La Campana Fundacion Peluffo Guigens","name_aliases":"Hogar La Campana Fundacion Peluffo Guigens","lat":-34.89802,"lon":-56.16524}
{"id":6698656,"name":"Edificio Puerta del Sol","name_accents":"Edificio Puerta del Sol","name_aliases":"Edificio Puerta del Sol","lat":-34.90376,"lon":-56.13033}
{"id":6698657,"name":"Casa Manuel Esmoris","name_accents":"Casa Manuel Esmoris","name_aliases":"Casa Manuel Esmoris","lat":-34.89301,"lon":-56.12402}
{"id":6698702,"name":"Monumento a Jose Pedro Varela","name_accents":"Monumento a Jose Pedro Varela","name_aliases":"Monumento a Jose Pedro Varela","lat":-34.90625,"lon":-56.16336}
{"id":6698703,"name":"Automovil Club del Uruguay","name_accents":"Automovil Club del Uruguay","name_aliases":"Automovil Club del Uruguay","lat":-34.90266,"lon":-56.19247}
{"id":6698704,"name":"Bolsa de Valores (Montevideo)","name_accents":"Bolsa de Valores (Montevideo)","name_aliases":"Bolsa de Valores (Montevideo)","lat":-34.90722,"lon":-56.20604}
{"id":6698705,"name":"Edificio Explanada San Jose","name_accents":"Edificio Explanada San Jose","name_aliases":"Edificio Explanada San Jose","lat":-34.90643,"lon":-56.18705}
{"id":6698706,"name":"Edificio Stromboli","name_accents":"Edificio Stromboli","name_aliases":"Edificio Stromboli","lat":-34.901,"lon":-56.17173}
{"id":6698723,"name":"Edificio Alexandre's","name_accents":"Edificio Alexandre's","name_aliases":"Edificio Alexandre's","lat":-34.91312,"lon":-56.14947}
{"id":6698724,"name":"Edificio Cabo Benidorm","name_accents":"Edificio Cabo Benidorm","name_aliases":"Edificio Cabo Benidorm","lat":-34.9094,"lon":-56.14545}
{"id":6698725,"name":"Edificio El Malecon","name_accents":"Edificio El Malecon","name_aliases":"Edificio El Malecon","lat":-34.90919,"lon":-56.14252}
{"id":6698726,"name":"Edificio Goden Dream","name_accents":"Edificio Goden Dream","name_aliases":"Edificio Goden Dream","lat":-34.9107,"lon":-56.13471}
{"id":6698727,"name":"Edificio Yatch Club","name_accents":"Edificio Yatch Club","name_aliases":"Edificio Yatch Club","lat":-34.9098,"lon":-56.13103}
{"id":6698728,"name":"Edificio Torre Asuncion","name_accents":"Edificio Torre Asuncion","name_aliases":"Edificio Torre Asuncion","lat":-34.89141,"lon":-56.16469}
{"id":6930241,"name":"Edificio Italia II","name_accents":"Edificio Italia II","name_aliases":"Edificio Italia II","lat":-34.90821,"lon":-56.14307}
{"id":6930242,"name":"Edificio Irlanda","name_accents":"Edificio Irlanda","name_aliases":"Edificio Irlanda","lat":-34.91022,"lon":-56.14656}
{"id":6930243,"name":"Edificio Costamar","name_accents":"Edificio Costamar","name_aliases":"Edificio Costamar","lat":-34.91036,"lon":-56.14856}
{"id":6930245,"name":"Edificio Maraba","name_accents":"Edificio Maraba","name_aliases":"Edificio Maraba","lat":-34.90918,"lon":-56.15316}
{"id":6930247,"name":"Edificio Aumy","name_accents":"Edificio Aumy","name_aliases":"Edificio Aumy","lat":-34.91507,"lon":-56.1531}
{"id":6930249,"name":"Centro Hemato Oncologico Pedriatico Doctor Alberto Perez Scremini","name_accents":"Centro Hemato Oncologico Pedriatico Doctor Alberto Perez Scremini","name_aliases":"Centro Hemato Oncologico Pedriatico Doctor Alberto Perez Scremini","lat":-34.89947,"lon":-56.1641}
{"id":6930250,"name":"Edificio Fiumicino","name_accents":"Edificio Fiumicino","name_aliases":"Edificio Fiumicino","lat":-34.91501,"lon":-56.15244}
{"id":6930302,"name":"Edificio The Life","name_accents":"Edificio The Life","name_aliases":"Edificio The Life","lat":-34.90915,"lon":-56.14223}
{"id":6930303,"name":"Edificio Sant Germain","name_accents":"Edificio Sant Germain","name_aliases":"Edificio Sant Germain","lat":-34.91486,"lon":-56.15247}
{"id":6930304,"name":"Edificio Torre Velia","name_accents":"Edificio Torre Velia","name_aliases":"Edificio Torre Velia","lat":-34.91479,"lon":-56.15239}
{"id":6930305,"name":"Edificio Yazoo","name_accents":"Edificio Yazoo","name_aliases":"Edificio Yazoo","lat":-34.91579,"lon":-56.15006}
{"id":6930306,"name":"Edificio El Indio","name_accents":"Edificio El Indio","name_aliases":"Edificio El Indio","lat":-34.91994,"lon":-56.15634}
{"id":6930342,"name":"Planetario Municipal Ingeniero Agrimensor Germ\u00e1n Barbato","name_accents":"Planetario Municipal Ingeniero Agrimensor German Barbato","name_aliases":"Planetario Municipal Ingeniero Agrimensor Germ\u00e1n Barbato","lat":-34.90184,"lon":-56.14462}
{"id":6930343,"name":"Uni\u00f3n Postal de las Am\u00e9ricas Espa\u00f1a y Portugal (UPAEP) y Museo","name_accents":"Union Postal de las Americas Espana y Portugal (UPAEP) y Museo","name_aliases":"Uni\u00f3n Postal de las Am\u00e9ricas Espa\u00f1a y Portugal (UPAEP) y Museo","lat":-34.91389,"lon":-56.18275}
{"id":6930344,"name":"Casa Yriart","name_accents":"Casa Yriart","name_aliases":"Casa Yriart","lat":-34.91342,"lon":-56.15196}
{"id":6930345,"name":"Sanatorio Banco de Seguros del Estado (B.S.E)","name_accents":"Sanatorio Banco de Seguros del Estado (B.S.E)","name_aliases":"Sanatorio Banco de Seguros del Estado (B.S.E)","lat":-34.90438,"lon":-56.19457}
{"id":6930355,"name":"Instituto Goethe","name_accents":"Instituto Goethe","name_aliases":"Instituto Goethe","lat":-34.90845,"lon":-56.18254}
{"id":6930356,"name":"Escuela No 132 Aurelia Viera","name_accents":"Escuela No 132 Aurelia Viera","name_aliases":"Escuela No 132 Aurelia Viera","lat":-34.91169,"lon":-56.17675}
{"id":6930357,"name":"Sociedad de Arquitectos del Uruguay (SAU)","name_accents":"Sociedad de Arquitectos del Uruguay (SAU)","name_aliases":"Sociedad de Arquitectos del Uruguay (SAU)","lat":-34.91189,"lon":-56.17085}
{"id":6930358,"name":"Castillo Pitamiglio","name_accents":"Castillo Pitamiglio","name_aliases":"Castillo Pitamiglio","lat":-34.92093,"lon":-56.1498}
{"id":6930545,"name":"Casa Mario Pastore","name_accents":"Casa Mario Pastore","name_aliases":"Casa Mario Pastore","lat":-34.88177,"lon":-56.06712}
{"id":6930546,"name":"Monumento al General Fructuoso Rivera","name_accents":"Monumento al General Fructuoso Rivera","name_aliases":"Monumento al General Fructuoso Rivera","lat":-34.89371,"lon":-56.16554}
{"id":6930547,"name":"Edificio Miro","name_accents":"Edificio Miro","name_aliases":"Edificio Miro","lat":-34.90742,"lon":-56.15972}
{"id":6930767,"name":"Portones Shopping","name_accents":"Portones Shopping","name_aliases":"Portones Shopping","lat":-34.88158,"lon":-56.08221}
{"id":6930768,"name":"Edificio Tapie","name_accents":"Edificio Tapie","name_aliases":"Edificio Tapie","lat":-34.90578,"lon":-56.18532}
{"id":6930769,"name":"Edificio Constituyente II","name_accents":"Edificio Constituyente II","name_aliases":"Edificio Constituyente II","lat":-34.90767,"lon":-56.17271}
{"id":6930770,"name":"Edificio Blue Bird","name_accents":"Edificio Blue Bird","name_aliases":"Edificio Blue Bird","lat":-34.91496,"lon":-56.15545}
{"id":6930771,"name":"Museo Nacional de Artes Visuales (mnav)","name_accents":"Museo Nacional de Artes Visuales (mnav)","name_aliases":"Museo Nacional de Artes Visuales (mnav)","lat":-34.91379,"lon":-56.16466}
{"id":6930772,"name":"Edificio Torre D'Argento","name_accents":"Edificio Torre D'Argento","name_aliases":"Edificio Torre D'Argento","lat":-34.90797,"lon":-56.14951}
{"id":6930773,"name":"Edificio Tamburini","name_accents":"Edificio Tamburini","name_aliases":"Edificio Tamburini","lat":-34.90897,"lon":-56.14942}
{"id":6930774,"name":"Edificio Bukingham","name_accents":"Edificio Bukingham","name_aliases":"Edificio Bukingham","lat":-34.91645,"lon":-56.15083}
{"id":6930775,"name":"Gimnasio Liceo No 7 Joaquin Suarez","name_accents":"Gimnasio Liceo No 7 Joaquin Suarez","name_aliases":"Gimnasio Liceo N\u00b0 7 Joaquin Suarez","lat":-34.91682,"lon":-56.15351}
{"id":6930844,"name":"Facultad de Arquitectura_UdelaR","name_accents":"Facultad de Arquitectura_UdelaR","name_aliases":"Facultad de Arquitectura_UdelaR","lat":-34.91031,"lon":-56.16364}
{"id":6930845,"name":"Facultad de Ingenieria_UdelaR","name_accents":"Facultad de Ingenieria_UdelaR","name_aliases":"Facultad de Ingenieria_UdelaR","lat":-34.91829,"lon":-56.16637}
{"id":6930846,"name":"Facultad de Ciencias Econ\u00f3micas y Administraci\u00f3n_UdelaR","name_accents":"Facultad de Ciencias Economicas y Administracion_UdelaR","name_aliases":"Facultad de Ciencias Econ\u00f3micas y Administraci\u00f3n_UdelaR","lat":-34.91204,"lon":-56.17337}
{"id":6931065,"name":"Casa Jose Pedro Sierra Morato","name_accents":"Casa Jose Pedro Sierra Morato","name_aliases":"Casa Jose Pedro Sierra Morato","lat":-34.88275,"lon":-56.07465}
{"id":6931066,"name":"Edificio Jockey Club de Montevideo","name_accents":"Edificio Jockey Club de Montevideo","name_aliases":"Edificio Jockey Club de Montevideo","lat":-34.90621,"lon":-56.19785}
{"id":6931067,"name":"Edificio Palacio Uriarte de Heber","name_accents":"Edificio Palacio Uriarte de Heber","name_aliases":"Edificio Palacio Uriarte de Heber","lat":-34.90637,"lon":-56.19485}
{"id":6931068,"name":"Edificio Orion","name_accents":"Edificio Orion","name_aliases":"Edificio Orion","lat":-34.90491,"lon":-56.18908}
{"id":6931082,"name":"Casa Forteza y Otero","name_accents":"Casa Forteza y Otero","name_aliases":"Casa Forteza y Otero","lat":-34.91926,"lon":-56.15909}
{"id":6931083,"name":"Edificio Nautilus","name_accents":"Edificio Nautilus","name_aliases":"Edificio Nautilus","lat":-34.92161,"lon":-56.15097}
{"id":6931084,"name":"Parque Zoologico Dolores Pereira de Rossell","name_accents":"Parque Zoologico Dolores Pereira de Rossell","name_aliases":"Parque Zoologico Dolores Pereira de Rossell","lat":-34.90246,"lon":-56.14512}
{"id":6931089,"name":"Casa Reborati","name_accents":"Casa Reborati","name_aliases":"Casa Reborati","lat":-34.91902,"lon":-56.15139}
{"id":6931090,"name":"Casa Bello","name_accents":"Casa Bello","name_aliases":"Casa Bello","lat":-34.91863,"lon":-56.15312}
{"id":6931091,"name":"Edificio Concorde","name_accents":"Edificio Concorde","name_aliases":"Edificio Concorde","lat":-34.91878,"lon":-56.15013}
{"id":6931092,"name":"Monumento al General Manuel Oribe","name_accents":"Monumento al General Manuel Oribe","name_aliases":"Monumento al General Manuel Oribe","lat":-34.90142,"lon":-56.17528}
{"id":6931093,"name":"Hospital Italiano Humberto I _ Ospedale Italiano Umberto I","name_accents":"Hospital Italiano Humberto I _ Ospedale Italiano Umberto I","name_aliases":"Hospital Italiano Humberto I _ Ospedale Italiano Umberto I","lat":-34.8964,"lon":-56.16422}
{"id":6940398,"name":"Hospital de Clinicas Doctor Manuel Quintela_UdelaR","name_accents":"Hospital de Clinicas Doctor Manuel Quintela_UdelaR","name_aliases":"Hospital de Clinicas Doctor Manuel Quintela_UdelaR","lat":-34.8914,"lon":-56.15171}
{"id":6940399,"name":"Hospital Britanico","name_accents":"Hospital Britanico","name_aliases":"Hospital Britanico","lat":-34.89453,"lon":-56.16257}
{"id":6940400,"name":"Hospital Britanico_Policl\u00ednico General","name_accents":"Hospital Britanico_Policlinico General","name_aliases":"Hospital Britanico_Policl\u00ednico General","lat":-34.89498,"lon":-56.16328}
{"id":6940401,"name":"Universidad Cat\u00f3lica del Uruguay_D\u00e1maso Antonio Larra\u00f1aga (UCUDAL)","name_accents":"Universidad Catolica del Uruguay_Damaso Antonio Larranaga (UCUDAL)","name_aliases":"Universidad Cat\u00f3lica del Uruguay_D\u00e1maso Antonio Larra\u00f1aga (UCUDAL)","lat":-34.88845,"lon":-56.15897}
{"id":6940402,"name":"Liceo No 3 Damaso Antonio Larra\u00f1aga","name_accents":"Liceo No 3 Damaso Antonio Larranaga","name_aliases":"Liceo N\u00ba 3 Damaso Antonio Larranaga,Liceo N\u00ba 3 Damaso Antonio Larra\u00f1aga","lat":-34.88727,"lon":-56.15444}
{"id":6940559,"name":"Edificio Berro DV","name_accents":"Edificio Berro DV","name_aliases":"Edificio Berro DV","lat":-34.91152,"lon":-56.15034}
{"id":6940572,"name":"Edificio_Martin","name_accents":"Edificio_Martin","name_aliases":"Edificio_Martin","lat":-34.88651,"lon":-56.18608}
{"id":6941084,"name":"Observatorio Astronomico Los Molinos","name_accents":"Observatorio Astronomico Los Molinos","name_aliases":"Observatorio Astronomico Los Molinos","lat":-34.75524,"lon":-56.19041}
{"id":6941143,"name":"Cruz Roja Uruguaya","name_accents":"Cruz Roja Uruguaya","name_aliases":"Cruz Roja Uruguaya","lat":-34.88427,"lon":-56.15562}
{"id":6941144,"name":"Instituto Nacional de Ciruguia Cardiaca","name_accents":"Instituto Nacional de Ciruguia Cardiaca","name_aliases":"Instituto Nacional de Ciruguia Cardiaca","lat":-34.88471,"lon":-56.1513}
{"id":6941145,"name":"Iglesia Hermanas Dominicas","name_accents":"Iglesia Hermanas Dominicas","name_aliases":"Iglesia Hermanas Dominicas","lat":-34.84124,"lon":-56.14749}
{"id":6941413,"name":"CONAPROLE (Cooperativa Nacional de Productores de Leche)","name_accents":"CONAPROLE (Cooperativa Nacional de Productores de Leche)","name_aliases":"CONAPROLE (Cooperativa Nacional de Productores de Leche)","lat":-34.83447,"lon":-56.25233}
{"id":6941414,"name":"Facultad de Agronomia_UdelaR","name_accents":"Facultad de Agronomia_UdelaR","name_aliases":"Facultad de Agronomia_UdelaR","lat":-34.83696,"lon":-56.22105}
{"id":6941415,"name":"Asociacion Nacional Productores de Leche (ANPL)","name_accents":"Asociacion Nacional Productores de Leche (ANPL)","name_aliases":"Asociacion Nacional Productores de Leche (ANPL)","lat":-34.89575,"lon":-56.18387}
{"id":6941540,"name":"Torre Ejecutiva (Ex Palacio de Justicia)","name_accents":"Torre Ejecutiva (Ex Palacio de Justicia)","name_aliases":"Torre Ejecutiva (Ex Palacio de Justicia)","lat":-34.90727,"lon":-56.20021}
{"id":6941598,"name":"Edificio Mercosur (Ex Parque Hotel).","name_accents":"Edificio Mercosur (Ex Parque Hotel).","name_aliases":"Edificio Mercosur (Ex Parque Hotel).","lat":-34.91421,"lon":-56.17131}
{"id":6941599,"name":"Radio Oceano FM 93.9 (Ex Estudio Arquitecto Raul Sichero Bouret)","name_accents":"Radio Oceano FM 93.9 (Ex Estudio Arquitecto Raul Sichero Bouret)","name_aliases":"Radio Oceano FM 93.9 (Ex Estudio Arquitecto Raul Sichero Bouret)","lat":-34.90898,"lon":-56.1345}
{"id":6942452,"name":"Museo Pedagogico Jose Pedro Varela","name_accents":"Museo Pedagogico Jose Pedro Varela","name_aliases":"Museo Pedagogico Jose Pedro Varela","lat":-34.90529,"lon":-56.19075}
{"id":6942453,"name":"Parque Jardin I","name_accents":"Parque Jardin I","name_aliases":"Parque Jardin I","lat":-34.90284,"lon":-56.16295}
{"id":6942454,"name":"Parque Jardin II","name_accents":"Parque Jardin II","name_aliases":"Parque Jardin II","lat":-34.90303,"lon":-56.16303}
{"id":6942455,"name":"Casa Boada","name_accents":"Casa Boada","name_aliases":"Casa Boada","lat":-34.91678,"lon":-56.16288}
{"id":6943483,"name":"Hotel Best Western Palladium","name_accents":"Hotel Best Western Palladium","name_aliases":"Hotel Best Western Palladium","lat":-34.90399,"lon":-56.1328}
{"id":6946015,"name":"Edificio Zubillaga","name_accents":"Edificio Zubillaga","name_aliases":"Edificio Zubillaga","lat":-34.90812,"lon":-56.15816}
{"id":6946016,"name":"Edificio Monaco","name_accents":"Edificio Monaco","name_aliases":"Edificio Monaco","lat":-34.90886,"lon":-56.15502}
{"id":6946017,"name":"Item Electro Industrial S. A.","name_accents":"Item Electro Industrial S. A.","name_aliases":"Item Electro Industrial S. A.","lat":-34.89314,"lon":-56.12484}
{"id":6946018,"name":"Club Banco Comercial","name_accents":"Club Banco Comercial","name_aliases":"Club Banco Comercial","lat":-34.91016,"lon":-56.13579}
{"id":6948081,"name":"Escuela No 40 Mexico","name_accents":"Escuela No 40 Mexico","name_aliases":"Escuela N\u00b0 40 Mexico","lat":-34.87532,"lon":-56.1755}
{"id":6948084,"name":"Edificio Bel Horizon","name_accents":"Edificio Bel Horizon","name_aliases":"Edificio Bel Horizon","lat":-34.92888,"lon":-56.16082}
{"id":6948085,"name":"Edificio Cumbre","name_accents":"Edificio Cumbre","name_aliases":"Edificio Cumbre","lat":-34.90948,"lon":-56.15346}
{"id":6948155,"name":"Montevideo Rowing Club","name_accents":"Montevideo Rowing Club","name_aliases":"Montevideo Rowing Club","lat":-34.88885,"lon":-56.19591}
{"id":6948161,"name":"Edificio Centromar","name_accents":"Edificio Centromar","name_aliases":"Edificio Centromar","lat":-34.90893,"lon":-56.20373}
{"id":6948839,"name":"Facultad de Psicologia_UdelaR","name_accents":"Facultad de Psicologia_UdelaR","name_aliases":"Facultad de Psicologia_UdelaR","lat":-34.89969,"lon":-56.17881}
{"id":6949173,"name":"Casa Joel Petit de la Villon","name_accents":"Casa Joel Petit de la Villon","name_aliases":"Casa Joel Petit de la Villon","lat":-34.87478,"lon":-56.03992}
{"id":6949174,"name":"Iglesia Stella Maris","name_accents":"Iglesia Stella Maris","name_aliases":"Iglesia Stella Maris","lat":-34.88821,"lon":-56.05664}
{"id":6949175,"name":"Casa Mario Paysee Reyes","name_accents":"Casa Mario Paysee Reyes","name_aliases":"Casa Mario Paysee Reyes","lat":-34.8835,"lon":-56.04711}
{"id":6949176,"name":"Plaza Arocena Shopping Mall","name_accents":"Plaza Arocena Shopping Mall","name_aliases":"Plaza Arocena Shopping Mall","lat":-34.88681,"lon":-56.05802}
{"id":6949177,"name":"Fundacion Ni\u00f1os con Alas","name_accents":"Fundacion Ninos con Alas","name_aliases":"Fundacion Ni\u00f1os con Alas","lat":-34.88861,"lon":-56.05896}
{"id":6951430,"name":"Casa Artucio","name_accents":"Casa Artucio","name_aliases":"Casa Artucio","lat":-34.90409,"lon":-56.18911}
{"id":6951432,"name":"Edificio Palacio Montero (Sorocabana)","name_accents":"Edificio Palacio Montero (Sorocabana)","name_aliases":"Edificio Palacio Montero (Sorocabana)","lat":-34.90564,"lon":-56.19061}
{"id":6951433,"name":"Escuela No 219 Olympia Fernandez (Experimental de Malvin)","name_accents":"Escuela No 219 Olympia Fernandez (Experimental de Malvin)","name_aliases":"Escuela N\u00b0 219 Olympia Fernandez (Experimental de Malvin)","lat":-34.8929,"lon":-56.09936}
{"id":6951434,"name":"Iglesia Santa Rita","name_accents":"Iglesia Santa Rita","name_aliases":"Iglesia Santa Rita","lat":-34.88968,"lon":-56.07972}
{"id":6951435,"name":"Centro de Promoci\u00f3n Familiar Providencia","name_accents":"Centro de Promocion Familiar Providencia","name_aliases":"Centro de Promoci\u00f3n Familiar Providencia","lat":-34.87779,"lon":-56.26818}
{"id":6951436,"name":"LAR Centro Residencial","name_accents":"LAR Centro Residencial","name_aliases":"LAR Centro Residencial","lat":-34.89565,"lon":-56.12242}
{"id":6951437,"name":"Museo Historico Nacional Casa Garibaldi","name_accents":"Museo Historico Nacional Casa Garibaldi","name_aliases":"Museo Historico Nacional Casa Garibaldi","lat":-34.90716,"lon":-56.20922}
{"id":6951438,"name":"Restaurant La Proa","name_accents":"Restaurant La Proa","name_aliases":"Restaurant La Proa","lat":-34.90555,"lon":-56.21135}
{"id":6951439,"name":"Hotel Nacional","name_accents":"Hotel Nacional","name_aliases":"Hotel Nacional","lat":-34.90745,"lon":-56.21441}
{"id":6951562,"name":"Edificio Vicente de Vita","name_accents":"Edificio Vicente de Vita","name_aliases":"Edificio Vicente de Vita","lat":-34.90289,"lon":-56.19415}
{"id":6955376,"name":"Casa Zambrano","name_accents":"Casa Zambrano","name_aliases":"Casa Zambrano","lat":-34.8916,"lon":-56.05982}
{"id":6955377,"name":"Club Aleman de Remo (Sede Social)","name_accents":"Club Aleman de Remo (Sede Social)","name_aliases":"Club Aleman de Remo (Sede Social)","lat":-34.92681,"lon":-56.15899}
{"id":6955378,"name":"Edificio de la Corte Electoral","name_accents":"Edificio de la Corte Electoral","name_aliases":"Edificio de la Corte Electoral","lat":-34.90536,"lon":-56.2049}
{"id":6955379,"name":"Jardin de Infantes No 213 Compte y Rique","name_accents":"Jardin de Infantes No 213 Compte y Rique","name_aliases":"Jardin de Infantes N\u00b0 213 Compte y Rique","lat":-34.88292,"lon":-56.19046}
{"id":6955380,"name":"Torre Green Field","name_accents":"Torre Green Field","name_aliases":"Torre Green Field","lat":-34.92578,"lon":-56.16108}
{"id":6955381,"name":"Edificio Parque Aguirre","name_accents":"Edificio Parque Aguirre","name_aliases":"Edificio Parque Aguirre","lat":-34.88686,"lon":-56.06146}
{"id":6955382,"name":"The Old Boys & Old Girls Club","name_accents":"The Old Boys & Old Girls Club","name_aliases":"The Old Boys & Old Girls Club","lat":-34.87716,"lon":-56.07523}
{"id":6955383,"name":"Teatro Victoria","name_accents":"Teatro Victoria","name_aliases":"Teatro Victoria","lat":-34.90367,"lon":-56.19401}
{"id":6955384,"name":"Teatro Florencio Sanchez (Montevideo)","name_accents":"Teatro Florencio Sanchez (Montevideo)","name_aliases":"Teatro Florencio Sanchez (Montevideo)","lat":-34.89226,"lon":-56.24782}
{"id":6955385,"name":"Casa Braselli","name_accents":"Casa Braselli","name_aliases":"Casa Braselli","lat":-34.88954,"lon":-56.06879}
{"id":6955386,"name":"ALADI (Asociacion Latinoamericana de Integracion)","name_accents":"ALADI (Asociacion Latinoamericana de Integracion)","name_aliases":"ALADI (Asociacion Latinoamericana de Integracion)","lat":-34.91335,"lon":-56.1834}
{"id":6957532,"name":"Sala de Espectaculos SODRE_Auditorio Nacional Adela Reta","name_accents":"Sala de Espectaculos SODRE_Auditorio Nacional Adela Reta","name_aliases":"Sala de Espectaculos SODRE_Auditorio Nacional Adela Reta","lat":-34.90431,"lon":-56.19869}
{"id":6957533,"name":"Liceo Frances Jules Supervielle","name_accents":"Liceo Frances Jules Supervielle","name_aliases":"Liceo Frances Jules Supervielle","lat":-34.90422,"lon":-56.12872}
{"id":7117947,"name":"CEMPRE Uruguay","name_accents":"CEMPRE Uruguay","name_aliases":"CEMPRE Uruguay","lat":-34.88031,"lon":-56.07779}
{"id":7117948,"name":"Edificio Gala _ Punta Carretas","name_accents":"Edificio Gala _ Punta Carretas","name_aliases":"Edificio Gala _ Punta Carretas","lat":-34.91982,"lon":-56.15153}
{"id":7118039,"name":"Plaza Independencia","name_accents":"Plaza Independencia","name_aliases":"Plaza Independencia","lat":-34.90657,"lon":-56.19957}
{"id":7118040,"name":"Avenida 18 de Julio","name_accents":"Avenida 18 de Julio","name_aliases":"Avenida 18 de Julio","lat":-34.90585,"lon":-56.19123}
{"id":7118041,"name":"Parque Rodo","name_accents":"Parque Rodo","name_aliases":"Parque Rodo","lat":-34.91754,"lon":-56.16683}
{"id":7118116,"name":"Punta Carretas Loft","name_accents":"Punta Carretas Loft","name_aliases":"Punta Carretas Loft","lat":-34.91809,"lon":-56.16137}
{"id":7211405,"name":"Hospital Policial Inspector General Uruguay Genta","name_accents":"Hospital Policial Inspector General Uruguay Genta","name_aliases":"Hospital Policial Inspector General Uruguay Genta","lat":-34.86837,"lon":-56.16085}
{"id":7274692,"name":"Banco de Protesis (centro quirurgico Profesor Doctor Oscar Guguelmone)","name_accents":"Banco de Protesis (centro quirurgico Profesor Doctor Oscar Guguelmone)","name_aliases":"Banco de Protesis (centro quirurgico Profesor Doctor Oscar Guguelmone)","lat":-34.88409,"lon":-56.09014}
{"id":7279475,"name":"Edificio Planeta","name_accents":"Edificio Planeta","name_aliases":"Edificio Planeta","lat":-34.91112,"lon":-56.14558}
{"id":7279476,"name":"Edificio Kansas","name_accents":"Edificio Kansas","name_aliases":"Edificio Kansas","lat":-34.91565,"lon":-56.15047}
{"id":7279477,"name":"Banco Central del Uruguay (BCU)","name_accents":"Banco Central del Uruguay (BCU)","name_aliases":"Banco Central del Uruguay (BCU)","lat":-34.90324,"lon":-56.20005}
{"id":7279574,"name":"Hospital Pasteur (Montevideo)","name_accents":"Hospital Pasteur (Montevideo)","name_aliases":"Hospital Pasteur (Montevideo)","lat":-34.87514,"lon":-56.13845}
{"id":7279915,"name":"Edificio Ovalle","name_accents":"Edificio Ovalle","name_aliases":"Edificio Ovalle","lat":-34.90426,"lon":-56.18273}
{"id":7279916,"name":"Edificio Olivetti","name_accents":"Edificio Olivetti","name_aliases":"Edificio Olivetti","lat":-34.90003,"lon":-56.19124}
{"id":7279917,"name":"Edificio Palacio de Correos","name_accents":"Edificio Palacio de Correos","name_aliases":"Edificio Palacio de Correos","lat":-34.90839,"lon":-56.20546}
{"id":7281074,"name":"Edificio Trouville (Montevideo)","name_accents":"Edificio Trouville (Montevideo)","name_aliases":"Edificio Trouville (Montevideo)","lat":-34.91959,"lon":-56.14933}
{"id":7281075,"name":"Casa Quinta Idiarte Borda","name_accents":"Casa Quinta Idiarte Borda","name_aliases":"Casa Quinta Idiarte Borda","lat":-34.80207,"lon":-56.23211}
{"id":7281076,"name":"Centro Hospitalario del Norte Gustavo Saint Bois","name_accents":"Centro Hospitalario del Norte Gustavo Saint Bois","name_aliases":"Centro Hospitalario del Norte Gustavo Saint Bois","lat":-34.78788,"lon":-56.24183}
{"id":7281089,"name":"Centro de Dise\u00f1o Industrial (CDI)","name_accents":"Centro de Diseno Industrial (CDI)","name_aliases":"Centro de Dise\u00f1o Industrial (CDI)","lat":-34.8945,"lon":-56.18016}
{"id":7281090,"name":"Edificio Centro de Proteccion de Choferes de Montevideo","name_accents":"Edificio Centro de Proteccion de Choferes de Montevideo","name_aliases":"Edificio Centro de Proteccion de Choferes de Montevideo","lat":-34.90742,"lon":-56.18945}
{"id":7281091,"name":"Maro\u00f1as Entertainment (Ex Sede del diario El Dia)","name_accents":"Maronas Entertainment (Ex Sede del diario El Dia)","name_aliases":"Maro\u00f1as Entertainment (Ex Sede del diario El Dia)","lat":-34.90542,"lon":-56.18826}
{"id":7281092,"name":"Edificio Milan","name_accents":"Edificio Milan","name_aliases":"Edificio Milan","lat":-34.91002,"lon":-56.14748}
{"id":7281093,"name":"Centro Cultural de Espa\u00f1a (cce)","name_accents":"Centro Cultural de Espana (cce)","name_aliases":"Centro Cultural de Espa\u00f1a (cce)","lat":-34.90574,"lon":-56.20276}
{"id":7281094,"name":"Banco Interamericano de Desarrollo (BID)","name_accents":"Banco Interamericano de Desarrollo (BID)","name_aliases":"Banco Interamericano de Desarrollo (BID)","lat":-34.90592,"lon":-56.20241}
{"id":7283223,"name":"CEADU - (Centro de Estudios, An\u00e1lisis y Comunicaci\u00f3n del Uruguay)","name_accents":"CEADU - (Centro de Estudios, Analisis y Comunicacion del Uruguay)","name_aliases":"CEADU - (Centro de Estudios, An\u00e1lisis y Comunicaci\u00f3n del Uruguay)","lat":-34.91139,"lon":-56.16864}
{"id":7283229,"name":"Escuela No 4 Jose Artigas","name_accents":"Escuela No 4 Jose Artigas","name_aliases":"Escuela N\u00b0 4 Jose Artigas","lat":-34.90707,"lon":-56.17009}
{"id":7283231,"name":"Escuela No 18 Noruega","name_accents":"Escuela No 18 Noruega","name_aliases":"Escuela No 18 Noruega","lat":-34.90769,"lon":-56.14845}
{"id":7288084,"name":"Edificio Suevia","name_accents":"Edificio Suevia","name_aliases":"Edificio Suevia","lat":-34.90844,"lon":-56.19582}
{"id":7288085,"name":"Ateneo de Montevideo","name_accents":"Ateneo de Montevideo","name_aliases":"Ateneo de Montevideo","lat":-34.90523,"lon":-56.19122}
{"id":7288086,"name":"Edificio Abayuba","name_accents":"Edificio Abayuba","name_aliases":"Edificio Abayuba","lat":-34.89972,"lon":-56.16988}
{"id":7288087,"name":"Escuela No 39 Grecia","name_accents":"Escuela No 39 Grecia","name_aliases":"Escuela N\u00b0 39 Grecia","lat":-34.91962,"lon":-56.15664}
{"id":7288088,"name":"Casa Ardao","name_accents":"Casa Ardao","name_aliases":"Casa Ardao","lat":-34.90501,"lon":-56.13945}
{"id":7288089,"name":"Edificio The Prize","name_accents":"Edificio The Prize","name_aliases":"Edificio The Prize","lat":-34.91193,"lon":-56.14744}
{"id":7288090,"name":"Edificio Ondine","name_accents":"Edificio Ondine","name_aliases":"Edificio Ondine","lat":-34.91058,"lon":-56.14838}
{"id":7288091,"name":"Instituto Plan Agropecuario","name_accents":"Instituto Plan Agropecuario","name_aliases":"Instituto Plan Agropecuario","lat":-34.87088,"lon":-56.18635}
{"id":7288092,"name":"Liceo No 29 Alicia Goyena","name_accents":"Liceo No 29 Alicia Goyena","name_aliases":"Liceo N\u00b0 29 Alicia Goyena","lat":-34.88569,"lon":-56.17595}
{"id":7288093,"name":"Facultad de Humanidades y Ciencias_UdelaR","name_accents":"Facultad de Humanidades y Ciencias_UdelaR","name_aliases":"Facultad de Humanidades y Ciencias_UdelaR","lat":-34.90062,"lon":-56.18131}
{"id":7288094,"name":"Direccion Nacional de Bomberos - Cuartel Centenario","name_accents":"Direccion Nacional de Bomberos - Cuartel Centenario","name_aliases":"Direccion Nacional de Bomberos - Cuartel Centenario","lat":-34.9025,"lon":-56.18071}
{"id":7290173,"name":"Facultad de Odontolog\u00eda - UdelaR","name_accents":"Facultad de Odontologia - UdelaR","name_aliases":"Facultad de Odontolog\u00eda - UdelaR","lat":-34.8922,"lon":-56.15001}
{"id":7290174,"name":"Instituto de Higiene - UdelaR","name_accents":"Instituto de Higiene - UdelaR","name_aliases":"Instituto de Higiene - UdelaR","lat":-34.89289,"lon":-56.15028}
{"id":7290175,"name":"Centro Uruguayo de Imagenolog\u00eda Molecular (CUDIM)","name_accents":"Centro Uruguayo de Imagenologia Molecular (CUDIM)","name_aliases":"Centro Uruguayo de Imagenolog\u00eda Molecular (CUDIM)","lat":-34.89202,"lon":-56.15331}
{"id":7290176,"name":"Casa Ariel Orozco","name_accents":"Casa Ariel Orozco","name_aliases":"Casa Ariel Orozco","lat":-34.90646,"lon":-56.13991}
{"id":7290177,"name":"Katoen Natie - Terminal Cuenca del Plata (TCP)","name_accents":"Katoen Natie - Terminal Cuenca del Plata (TCP)","name_aliases":"Katoen Natie - Terminal Cuenca del Plata (TCP)","lat":-34.90832,"lon":-56.21667}
{"id":7290178,"name":"COCAP (Consejo Capacitacion Profesional)","name_accents":"COCAP (Consejo Capacitacion Profesional)","name_aliases":"COCAP (Consejo Capacitacion Profesional)","lat":-34.89248,"lon":-56.19261}
{"id":7290179,"name":"Facultad de Medicina - UdelaR","name_accents":"Facultad de Medicina - UdelaR","name_aliases":"Facultad de Medicina - UdelaR","lat":-34.88825,"lon":-56.18633}
{"id":7290180,"name":"Aguada Park","name_accents":"Aguada Park","name_aliases":"Aguada Park","lat":-34.89126,"lon":-56.19504}
{"id":7290181,"name":"Instituto de Profesores Artigas (IPA)","name_accents":"Instituto de Profesores Artigas (IPA)","name_aliases":"Instituto de Profesores Artigas (IPA)","lat":-34.89367,"lon":-56.18874}
{"id":7290182,"name":"Edificio San Remo","name_accents":"Edificio San Remo","name_aliases":"Edificio San Remo","lat":-34.92055,"lon":-56.15305}
{"id":7290183,"name":"Edificio Green Space","name_accents":"Edificio Green Space","name_aliases":"Edificio Green Space","lat":-34.91974,"lon":-56.15417}
{"id":7302496,"name":"Instituto Nacional de Colonizacion (INC)","name_accents":"Instituto Nacional de Colonizacion (INC)","name_aliases":"Instituto Nacional de Colonizacion (INC)","lat":-34.90521,"lon":-56.2062}
{"id":7302497,"name":"Liga de Defensa Comercial (LIDECO)","name_accents":"Liga de Defensa Comercial (LIDECO)","name_aliases":"Liga de Defensa Comercial (LIDECO)","lat":-34.90493,"lon":-56.19501}
{"id":7302498,"name":"Alianza Cultural Uruguay Estados Unidos","name_accents":"Alianza Cultural Uruguay Estados Unidos","name_aliases":"Alianza Cultural Uruguay Estados Unidos","lat":-34.9085,"lon":-56.19239}
{"id":7302947,"name":"Asociacion Espa\u00f1ola Primera de Socorros Mutuos - Edificio Oscar Magurno Souto","name_accents":"Asociacion Espanola Primera de Socorros Mutuos - Edificio Oscar Magurno Souto","name_aliases":"Asociacion Espa\u00f1ola Primera de Socorros Mutuos - Edificio Oscar Magurno Souto","lat":-34.90194,"lon":-56.16474}
{"id":7303392,"name":"Monumento a Mahatma Gandhi","name_accents":"Monumento a Mahatma Gandhi","name_aliases":"Monumento a Mahatma Gandhi","lat":-34.92202,"lon":-56.15051}
{"id":7303394,"name":"Hospital Centro Geri\u00e1trico Doctor Luis Pi\u00f1eyro","name_accents":"Hospital Centro Geriatrico Doctor Luis Pineyro","name_aliases":"Hospital Centro Geri\u00e1trico Doctor Luis Pi\u00f1eyro","lat":-34.87648,"lon":-56.13628}
{"id":7303395,"name":"Red Academica Uruguaya (RAU) - UdelaR","name_accents":"Red Academica Uruguaya (RAU) - UdelaR","name_aliases":"Red Academica Uruguaya (RAU) - UdelaR","lat":-34.89892,"lon":-56.17121}
{"id":7303806,"name":"Edificio Palazzo Pitti","name_accents":"Edificio Palazzo Pitti","name_aliases":"Edificio Palazzo Pitti","lat":-34.91169,"lon":-56.15096}
{"id":7303807,"name":"Faro de Punta Brava","name_accents":"Faro de Punta Brava","name_aliases":"Faro de Punta Carretas,Punta Brava Lighthouse","lat":-34.93524,"lon":-56.16045}
{"id":7303809,"name":"Palacio Legislativo - Edificio Anexo","name_accents":"Palacio Legislativo - Edificio Anexo","name_aliases":"Palacio Legislativo - Edificio Anexo","lat":-34.89076,"lon":-56.18889}
{"id":7497846,"name":"Instituto de Investigaciones Biologicas Clemente Estable","name_accents":"Instituto de Investigaciones Biologicas Clemente Estable","name_aliases":"Instituto de Investigaciones Biologicas Clemente Estable","lat":-34.88745,"lon":-56.14294}
{"id":7521580,"name":"Casa Quinta de Jos\u00e9 Batlle y Ordo\u00f1ez","name_accents":"Casa Quinta de Jose Batlle y Ordonez","name_aliases":"Casa Quinta de Jos\u00e9 Batlle y Ordo\u00f1ez","lat":-34.82343,"lon":-56.13471}
{"id":7535960,"name":"Embajada de la Republica Bolivariana de Venezuela (Palacio Correa)","name_accents":"Embajada de la Republica Bolivariana de Venezuela (Palacio Correa)","name_aliases":"Embajada de la Republica Bolivariana de Venezuela (Palacio Correa)","lat":-34.90493,"lon":-56.2003}
{"id":7535961,"name":"Monumento al Brigadier General Juan Antonio Lavalleja","name_accents":"Monumento al Brigadier General Juan Antonio Lavalleja","name_aliases":"Monumento al Brigadier General Juan Antonio Lavalleja","lat":-34.90281,"lon":-56.18042}
{"id":7536033,"name":"Punta Carretas Shopping","name_accents":"Punta Carretas Shopping","name_aliases":"Punta Carretas Shopping","lat":-34.9231,"lon":-56.15696}
{"id":7536063,"name":"Teatro Solis","name_accents":"Teatro Solis","name_aliases":"Teatro Solis","lat":-34.90779,"lon":-56.20082}
{"id":7536066,"name":"World Trade Center Montevideo","name_accents":"World Trade Center Montevideo","name_aliases":"World Trade Center Montevideo","lat":-34.90496,"lon":-56.13638}
{"id":7536067,"name":"Montevideo Shopping","name_accents":"Montevideo Shopping","name_aliases":"Montevideo Shopping","lat":-34.90307,"lon":-56.13649}
{"id":7536112,"name":"Casa Souto","name_accents":"Casa Souto","name_aliases":"Casa Souto","lat":-34.91862,"lon":-56.1626}
{"id":7536116,"name":"Instituto Nacional de Estad\u00edstica - INE","name_accents":"Instituto Nacional de Estadistica - INE","name_aliases":"Instituto Nacional de Estad\u00edstica - INE","lat":-34.90282,"lon":-56.19381}
{"id":7731873,"name":"Pizzeria Venecia","name_accents":"Pizzeria Venecia","name_aliases":"Pizzeria Venecia","lat":-34.90965,"lon":-56.16719}
{"id":7732005,"name":"Liceo Zorrilla","name_accents":"Liceo Zorrilla","name_aliases":"Liceo Zorrilla","lat":-34.90951,"lon":-56.16858}
{"id":7732030,"name":"Don Bosco","name_accents":"Don Bosco","name_aliases":"Don Bosco","lat":-34.90811,"lon":-56.16906}
{"id":7838868,"name":"Mercado del Puerto","name_accents":"Mercado del Puerto","name_aliases":"Mercado del Puerto","lat":-34.90557,"lon":-56.21176}
{"id":7838870,"name":"Peatonal Sarand\u00ed","name_accents":"Peatonal Sarandi","name_aliases":"Peatonal Sarand\u00ed","lat":-34.90677,"lon":-56.20189}
{"id":7838970,"name":"Rambla Sur","name_accents":"Rambla Sur","name_aliases":"Rambla Sur","lat":-34.91075,"lon":-56.20037}
{"id":7840055,"name":"Catedral Metropolitana","name_accents":"Catedral Metropolitana","name_aliases":"Catedral Metropolitana","lat":-34.90714,"lon":-56.20456}
{"id":7840105,"name":"Cabildo de Montevideo","name_accents":"Cabildo de Montevideo","name_aliases":"Cabildo de Montevideo","lat":-34.9065,"lon":-56.20261}
{"id":7840178,"name":"Plaza Matriz","name_accents":"Plaza Matriz","name_aliases":"Plaza Matriz","lat":-34.9066,"lon":-56.20354}
{"id":7840179,"name":"Plaza del Entrevero","name_accents":"Plaza del Entrevero","name_aliases":"Plaza del Entrevero","lat":-34.90567,"lon":-56.19427}
{"id":7840180,"name":"Plaza Libertad","name_accents":"Plaza Libertad","name_aliases":"Plaza Libertad","lat":-34.90588,"lon":-56.19157}
{"id":7840181,"name":"Intendencia Municipal de Montevideo","name_accents":"Intendencia Municipal de Montevideo","name_aliases":"Intendencia Municipal de Montevideo","lat":-34.90615,"lon":-56.18608}
{"id":7840183,"name":"Palacio Taranco","name_accents":"Palacio Taranco","name_aliases":"Palacio Taranco","lat":-34.90644,"lon":-56.20207}
{"id":7914030,"name":"Malvin","name_accents":"Malvin","name_aliases":"Malvin","lat":-34.89121,"lon":-56.09943}
{"id":7914084,"name":"Punta Gorda","name_accents":"Punta Gorda","name_aliases":"Punta Gorda","lat":-34.89265,"lon":-56.08175}
{"id":8128555,"name":"Liceo 31","name_accents":"Liceo 31","name_aliases":"Liceo 31","lat":-34.89221,"lon":-56.10373}
{"id":8128556,"name":"Club Malvin","name_accents":"Club Malvin","name_aliases":"Club Malvin","lat":-34.89048,"lon":-56.09625}
{"id":8410633,"name":"Maronas Racecourse","name_accents":"Maronas Racecourse","name_aliases":"Maronas Racecourse","lat":-34.8403,"lon":-56.14125}
{"id":8504412,"name":"Nueva Terminal de Pasajeros","name_accents":"Nueva Terminal de Pasajeros","name_aliases":"Nueva Terminal de Pasajeros","lat":-34.8941,"lon":-56.194}
{"id":8521749,"name":"Montevideo Fluvial Bus Station","name_accents":"Montevideo Fluvial Bus Station","name_aliases":"FMV,Montevideo Fluvial Bus Station","lat":-34.90383,"lon":-56.21291}
{"id":8521751,"name":"Tres Cruces Bus Station","name_accents":"Tres Cruces Bus Station","name_aliases":"Tres Cruces Bus Station,VDT","lat":-34.89382,"lon":-56.16662}
{"id":8521752,"name":"Tres Cruces","name_accents":"Tres Cruces","name_aliases":"Tres Cuces","lat":-34.89621,"lon":-56.16803}
{"id":8521753,"name":"Centenarial Stadium","name_accents":"Centenarial Stadium","name_aliases":"Centenarial Stadium","lat":-34.89463,"lon":-56.15286}
{"id":8617116,"name":"Parroquia Nuestra Se\u00f1ora de Lourdes","name_accents":"Parroquia Nuestra Senora de Lourdes","name_aliases":"Parroquia Nuestra Se\u00f1ora de Lourdes","lat":-34.89134,"lon":-56.09987}
{"id":8617117,"name":"Colegio y Liceo Nuestra Se\u00f1ora de Lourdes","name_accents":"Colegio y Liceo Nuestra Senora de Lourdes","name_aliases":"Colegio y Liceo Nuestra Se\u00f1ora de Lourdes","lat":-34.89149,"lon":-56.10071}
{"id":8617118,"name":"Molino de Perez","name_accents":"Molino de Perez","name_aliases":"Molino de Perez","lat":-34.89421,"lon":-56.09054}
{"id":8617119,"name":"Canteras del Molino de Perez","name_accents":"Canteras del Molino de Perez","name_aliases":"Canteras del Molino de Perez","lat":-34.89376,"lon":-56.08979}
{"id":8617120,"name":"Plaza de la Armada","name_accents":"Plaza de la Armada","name_aliases":"Plaza de la Armada","lat":-34.8991,"lon":-56.08135}
{"id":8617121,"name":"Playa de los Ingleses","name_accents":"Playa de los Ingleses","name_aliases":"Playa de los Ingleses","lat":-34.89585,"lon":-56.08523}
{"id":8617122,"name":"Playa Honda","name_accents":"Playa Honda","name_aliases":"Playa Honda","lat":-34.89576,"lon":-56.09222}
{"id":8617123,"name":"Sofitel Hotel Casino Carrasco","name_accents":"Sofitel Hotel Casino Carrasco","name_aliases":"Sofitel Hotel Casino Carrasco","lat":-34.89045,"lon":-56.05553}
{"id":9072748,"name":"Malv\u00edn Norte","name_accents":"Malvin Norte","name_aliases":"Malv\u00edn Norte","lat":-34.881,"lon":-56.1168}
{"id":9072749,"name":"Las Canteras","name_accents":"Las Canteras","name_aliases":"Las Canteras","lat":-34.8714,"lon":-56.1058}
{"id":9885084,"name":"Regency Way","name_accents":"Regency Way","name_aliases":"Regency Way","lat":-34.90196,"lon":-56.14174}
{"id":9885234,"name":"Holiday Inn Mvd","name_accents":"Holiday Inn Mvd","name_aliases":"Holiday Inn Mvd","lat":-34.90541,"lon":-56.19888}
{"id":9885238,"name":"Orpheo Express","name_accents":"Orpheo Express","name_aliases":"Orpheo Express","lat":-34.90455,"lon":-56.19827}
{"id":9885332,"name":"Sofitel Montevideo Casino Carrasco & Spa","name_accents":"Sofitel Montevideo Casino Carrasco & Spa","name_aliases":"Sofitel Montevideo Casino Carrasco & Spa","lat":-34.89062,"lon":-56.05529}
{"id":9885361,"name":"After Montevideo","name_accents":"After Montevideo","name_aliases":"After Montevideo","lat":-34.90385,"lon":-56.1326}
{"id":9885506,"name":"Urban Express","name_accents":"Urban Express","name_aliases":"Urban Express","lat":-34.9063,"lon":-56.19809}
{"id":9952129,"name":"Cottage","name_accents":"Cottage","name_aliases":"Cottage","lat":-34.89412,"lon":-56.06745}
{"id":9952130,"name":"Continental (Montevideo)","name_accents":"Continental (Montevideo)","name_aliases":"Continental (Montevideo)","lat":-34.90526,"lon":-56.19241}
{"id":9952131,"name":"Los Angeles (Montevideo)","name_accents":"Los Angeles (Montevideo)","name_aliases":"Los Angeles (Montevideo)","lat":-34.90705,"lon":-56.193}
{"id":9952132,"name":"Lancaster","name_accents":"Lancaster","name_aliases":"Lancaster","lat":-34.90599,"lon":-56.1905}
{"id":9952133,"name":"Armon Suites Hotel","name_accents":"Armon Suites Hotel","name_aliases":"Armon Suites Hotel","lat":-34.91887,"lon":-56.15443}
{"id":9952134,"name":"Tres Cruces","name_accents":"Tres Cruces","name_aliases":"Tres Cruces","lat":-34.8934,"lon":-56.1645}
{"id":9952135,"name":"Don Boutique Hotel","name_accents":"Don Boutique Hotel","name_aliases":"Don Boutique Hotel","lat":-34.90497,"lon":-56.2112}
{"id":9952136,"name":"Aramaya Hotel","name_accents":"Aramaya Hotel","name_aliases":"Aramaya Hotel","lat":-34.8772,"lon":-56.20502}
{"id":9952137,"name":"Melia Confort Montevideo","name_accents":"Melia Confort Montevideo","name_aliases":"Melia Confort Montevideo,Meli\u00e1 Confort Montevideo","lat":-34.92258,"lon":-56.1612}
{"id":9952138,"name":"Crystal Palace (Montevideo)","name_accents":"Crystal Palace (Montevideo)","name_aliases":"Crystal Palace (Montevideo)","lat":-34.9073,"lon":-56.1873}
{"id":9952139,"name":"Massini Suites","name_accents":"Massini Suites","name_aliases":"Massini Suites","lat":-34.90938,"lon":-56.1508}
{"id":9952140,"name":"Austral Hotel","name_accents":"Austral Hotel","name_aliases":"Austral Hotel","lat":-34.90965,"lon":-56.19187}
{"id":9952141,"name":"Punta Trouville Suites","name_accents":"Punta Trouville Suites","name_aliases":"Punta Trouville Suites","lat":-34.91814,"lon":-56.14941}
{"id":9952142,"name":"Iguazu","name_accents":"Iguazu","name_aliases":"Iguazu","lat":-34.90962,"lon":-56.19067}
{"id":9952143,"name":"Gran Hotel America","name_accents":"Gran Hotel America","name_aliases":"Gran Hotel America","lat":-34.87995,"lon":-56.20228}
{"id":9952144,"name":"Belmont House","name_accents":"Belmont House","name_aliases":"Belmont House","lat":-34.90674,"lon":-56.18189}
{"id":9952145,"name":"Arapey Hotel","name_accents":"Arapey Hotel","name_aliases":"Arapey Hotel","lat":-34.90325,"lon":-56.19657}
{"id":9952146,"name":"My Suites Montevideo","name_accents":"My Suites Montevideo","name_aliases":"My Suites Montevideo","lat":-34.91983,"lon":-56.15117}
{"id":9952147,"name":"Europa Hotel.","name_accents":"Europa Hotel.","name_aliases":"Europa Hotel.","lat":-34.90445,"lon":-56.18717}
{"id":9952148,"name":"Esplendor Montevideo","name_accents":"Esplendor Montevideo","name_aliases":"Esplendor Montevideo","lat":-34.908,"lon":-56.189}
{"id":9952149,"name":"Plaza Fuerte","name_accents":"Plaza Fuerte","name_aliases":"Plaza Fuerte","lat":-34.90448,"lon":-56.20277}
{"id":9957640,"name":"Axsur Design Hotel","name_accents":"Axsur Design Hotel","name_aliases":"Axsur Design Hotel","lat":-34.9095,"lon":-56.20501}
{"id":9968524,"name":"Bit Design Hotel","name_accents":"Bit Design Hotel","name_aliases":"Bit Design Hotel","lat":-34.92459,"lon":-56.16069}
{"id":9968525,"name":"Crystal Tower","name_accents":"Crystal Tower","name_aliases":"Crystal Tower","lat":-34.90605,"lon":-56.18797}
{"id":9968526,"name":"Hotel Hispano","name_accents":"Hotel Hispano","name_aliases":"Hotel Hispano","lat":-34.90697,"lon":-56.19704}
{"id":9968528,"name":"Four Points By Sheraton","name_accents":"Four Points By Sheraton","name_aliases":"Four Points By Sheraton","lat":-34.90677,"lon":-56.18678}
{"id":9968529,"name":"Embajador Montevideo","name_accents":"Embajador Montevideo","name_aliases":"Embajador Montevideo","lat":-34.90694,"lon":-56.19}
{"id":10062655,"name":"Gema Luxury Suites","name_accents":"Gema Luxury Suites","name_aliases":"Gema Luxury Suites","lat":-34.92068,"lon":-56.15252}
{"id":10062656,"name":"Dazzler Montevideo","name_accents":"Dazzler Montevideo","name_aliases":"Dazzler Montevideo","lat":-34.91589,"lon":-56.15889}
{"id":10062657,"name":"My Suites Boutique Hotel & Win","name_accents":"My Suites Boutique Hotel & Win","name_aliases":"My Suites Boutique Hotel & Win","lat":-34.9197,"lon":-56.15095}
{"id":10062658,"name":"Viewport Montevideo","name_accents":"Viewport Montevideo","name_aliases":"Viewport Montevideo","lat":-34.904,"lon":-56.199}
{"id":10062659,"name":"Palladium Business","name_accents":"Palladium Business","name_aliases":"Palladium Business","lat":-34.88,"lon":-56.165}
{"id":10062660,"name":"Oxford","name_accents":"Oxford","name_aliases":"Oxford","lat":-34.91114,"lon":-56.19196}
{"id":10097999,"name":"Aguada","name_accents":"Aguada","name_aliases":"Aguada","lat":-34.89142,"lon":-56.18889}
{"id":10098009,"name":"Aires Puros","name_accents":"Aires Puros","name_aliases":"Aires Puros","lat":-34.85153,"lon":-56.18846}
{"id":10098015,"name":"Atahualpa","name_accents":"Atahualpa","name_aliases":"Atahualpa","lat":-34.86474,"lon":-56.1897}
{"id":10098021,"name":"Barrio Sur","name_accents":"Barrio Sur","name_aliases":"Barrio Sur","lat":-34.91219,"lon":-56.18876}
{"id":10098029,"name":"Bol\u00edvar","name_accents":"Bolivar","name_aliases":"Bol\u00edvar","lat":-34.869,"lon":-56.15726}
{"id":10098033,"name":"Brazo Oriental","name_accents":"Brazo Oriental","name_aliases":"Brazo Oriental","lat":-34.86414,"lon":-56.1761}
{"id":10098077,"name":"Carrasco Norte","name_accents":"Carrasco Norte","name_aliases":"Carrasco Norte","lat":-34.87467,"lon":-56.06692}
{"id":10098107,"name":"Jacinto Vera","name_accents":"Jacinto Vera","name_aliases":"Jacinto Vera","lat":-34.87454,"lon":-56.16983}
{"id":10098114,"name":"La Blanqueada","name_accents":"La Blanqueada","name_aliases":"La Blanqueada","lat":-34.88737,"lon":-56.15359}
{"id":10098117,"name":"La Comercial","name_accents":"La Comercial","name_aliases":"La Comercial","lat":-34.88718,"lon":-56.16803}
{"id":10098122,"name":"La Teja","name_accents":"La Teja","name_aliases":"La Teja","lat":-34.86477,"lon":-56.23404}
{"id":10098127,"name":"Lezica","name_accents":"Lezica","name_aliases":"Lezica","lat":-34.79062,"lon":-56.25476}
{"id":10098131,"name":"Melilla","name_accents":"Melilla","name_aliases":"Melilla","lat":-34.75769,"lon":-56.29068}
{"id":10098139,"name":"Palermo","name_accents":"Palermo","name_aliases":"Palermo","lat":-34.91016,"lon":-56.17842}
{"id":10098141,"name":"Parque Batlle","name_accents":"Parque Batlle","name_aliases":"Parque Batlle","lat":-34.89427,"lon":-56.14546}
{"id":10098238,"name":"Parque Rod\u00f3","name_accents":"Parque Rodo","name_aliases":"Parque Rod\u00f3","lat":-34.91136,"lon":-56.16677}
{"id":10098244,"name":"Paso de la Arena","name_accents":"Paso de la Arena","name_aliases":"Paso de la Arena","lat":-34.82099,"lon":-56.31231}
{"id":10098249,"name":"Pocitos Nuevo","name_accents":"Pocitos Nuevo","name_aliases":"Pocitos Nuevo","lat":-34.9074,"lon":-56.13986}
{"id":10098254,"name":"Prado","name_accents":"Prado","name_aliases":"Prado","lat":-34.86403,"lon":-56.20275}
{"id":10098634,"name":"Ciudad del Plata","name_accents":"Ciudad del Plata","name_aliases":"Ciudad del Plata","lat":-34.767,"lon":-56.38381}
{"id":10101998,"name":"27 Suites","name_accents":"27 Suites","name_aliases":"27 Suites","lat":-34.91813,"lon":-56.14951}
{"id":10110758,"name":"Mercure Montevideo Punta Carretas","name_accents":"Mercure Montevideo Punta Carretas","name_aliases":"Mercure Montevideo Punta Carretas","lat":-34.9249,"lon":-56.15504}
{"id":10110760,"name":"Hotel Presidente","name_accents":"Hotel Presidente","name_aliases":"Hotel Presidente","lat":-34.9062,"lon":-56.19406}
{"id":10116723,"name":"Regency Rambla","name_accents":"Regency Rambla","name_aliases":"Regency Rambla","lat":-34.89212,"lon":-56.05602}
{"id":10116724,"name":"Marti Apart Hotel","name_accents":"Marti Apart Hotel","name_aliases":"Marti Apart Hotel","lat":-34.91177,"lon":-56.14928}
{"id":10121511,"name":"Santa Catalina","name_accents":"Santa Catalina","name_aliases":"Santa Catalina","lat":-34.88938,"lon":-56.29373}
{"id":10121513,"name":"Casaba","name_accents":"Casaba","name_aliases":"Casaba","lat":-34.88484,"lon":-56.27446}
{"id":10121515,"name":"Cerro Norte","name_accents":"Cerro Norte","name_aliases":"Cerro Norte","lat":-34.87143,"lon":-56.25987}
{"id":10121519,"name":"Plazoleta Enrique Ibsen","name_accents":"Plazoleta Enrique Ibsen","name_aliases":"Plazoleta Enrique Ibsen","lat":-34.87503,"lon":-56.26092}
{"id":10121523,"name":"Espacio Libre Enrique \"Che\" Guevara","name_accents":"Espacio Libre Enrique \"Che\" Guevara","name_aliases":"Espacio Libre Enrique \"Che\" Guevara","lat":-34.88752,"lon":-56.25766}
{"id":10121529,"name":"Fortaleza del Cerro","name_accents":"Fortaleza del Cerro","name_aliases":"El Cerro Fort","lat":-34.8884,"lon":-56.25999}
{"id":10121531,"name":"Cero Golf Club","name_accents":"Cero Golf Club","name_aliases":"Cero Golf Club","lat":-34.89498,"lon":-56.26365}
{"id":10121599,"name":"Awa Boutique","name_accents":"Awa Boutique","name_aliases":"Awa Boutique","lat":-34.89404,"lon":-56.15737}
{"id":10124925,"name":"Intercity Premium Montevideo","name_accents":"Intercity Premium Montevideo","name_aliases":"Intercity Premium Montevideo","lat":-34.91675,"lon":-56.16186}
{"id":10125071,"name":"Mediterraneo","name_accents":"Mediterraneo","name_aliases":"Mediterraneo","lat":-34.90595,"lon":-56.19218}
{"id":10125210,"name":"Regency Zonamerica","name_accents":"Regency Zonamerica","name_aliases":"Regency Zonamerica","lat":-34.78945,"lon":-56.07929}
{"id":10126733,"name":"Palladium Business Hotel","name_accents":"Palladium Business Hotel","name_aliases":"Palladium Business Hotel","lat":-34.90404,"lon":-56.13285}
{"id":10227796,"name":"Alvear","name_accents":"Alvear","name_aliases":"Alvear","lat":-34.90566,"lon":-56.18907}
